$GPRMC,205436.00,A,5129.35716,N,00245.56072,W,4.579,308.19,270821,,,A*74
$GPVTG,308.19,T,,M,4.579,N,8.481,K,A*34
$GPGGA,205436.00,5129.35716,N,00245.56072,W,1,05,2.94,5.3,M,48.8,M,,*4C
$GPGSA,A,3,15,05,23,13,18,,,,,,,,4.38,2.94,3.25*0D
$GPGSV,3,1,11,05,26,192,26,10,09,327,,13,67,113,24,14,47,069,*75
$GPGSV,3,2,11,15,78,259,27,17,12,101,,18,06,271,09,19,01,125,*70
$GPGSV,3,3,11,23,33,304,14,28,56,093,19,30,18,071,*4D
$GPGLL,5129.35716,N,00245.56072,W,205436.00,A,A*71
$GPRMC,205437.00,A,5129.35756,N,00245.56250,W,4.188,301.20,270821,,,A*7A
$GPVTG,301.20,T,,M,4.188,N,7.757,K,A*3A
$GPGGA,205437.00,5129.35756,N,00245.56250,W,1,05,2.94,5.3,M,48.8,M,,*4B
$GPGSA,A,3,15,05,23,13,18,,,,,,,,4.38,2.94,3.25*0D
$GPGSV,3,1,11,05,26,192,26,10,09,327,,13,67,113,24,14,47,069,*75
$GPGSV,3,2,11,15,78,259,27,17,12,101,,18,06,271,09,19,01,125,*70
$GPGSV,3,3,11,23,33,304,14,28,56,093,19,30,18,071,*4D
$GPGLL,5129.35756,N,00245.56250,W,205437.00,A,A*76
$GPRMC,205438.00,A,5129.35780,N,00245.56384,W,3.637,296.75,270821,,,A*7D
$GPVTG,296.75,T,,M,3.637,N,6.736,K,A*37
$GPGGA,205438.00,5129.35780,N,00245.56384,W,1,05,2.96,5.3,M,48.8,M,,*45
$GPGSA,A,3,15,05,23,13,18,,,,,,,,4.74,2.96,3.70*07
$GPGSV,3,1,11,05,26,192,26,10,09,327,,13,67,113,24,14,47,069,*75
$GPGSV,3,2,11,15,78,259,27,17,12,101,,18,06,271,22,19,01,125,*79
$GPGSV,3,3,11,23,33,304,16,28,56,093,18,30,18,071,*4E
$GPGLL,5129.35780,N,00245.56384,W,205438.00,A,A*7A
$GPRMC,205439.00,A,5129.35801,N,00245.56485,W,3.052,293.57,270821,,,A*7C
$GPVTG,293.57,T,,M,3.052,N,5.653,K,A*36
$GPGGA,205439.00,5129.35801,N,00245.56485,W,1,05,2.96,5.4,M,48.8,M,,*43
$GPGSA,A,3,15,05,23,13,18,,,,,,,,4.74,2.96,3.70*07
$GPGSV,3,1,11,05,26,192,26,10,09,327,,13,67,113,24,14,47,069,*75
$GPGSV,3,2,11,15,78,259,27,17,12,101,,18,06,271,20,19,01,125,*7B
$GPGSV,3,3,11,23,33,304,16,28,56,093,17,30,18,071,*41
$GPGLL,5129.35801,N,00245.56485,W,205439.00,A,A*7B
$GPRMC,205440.00,A,5129.35760,N,00245.56429,W,1.615,,270821,,,A*6F
$GPVTG,,T,,M,1.615,N,2.990,K,A*22
$GPGGA,205440.00,5129.35760,N,00245.56429,W,1,05,2.96,5.6,M,48.8,M,,*41
$GPGSA,A,3,15,05,23,13,18,,,,,,,,4.74,2.96,3.70*07
$GPGSV,3,1,11,05,26,192,26,10,09,327,,13,67,113,24,14,47,069,*75
$GPGSV,3,2,11,15,78,259,27,17,12,101,,18,06,271,19,19,01,125,*71
$GPGSV,3,3,11,23,33,304,16,28,56,093,17,30,18,071,*41
$GPGLL,5129.35760,N,00245.56429,W,205440.00,A,A*7B
$GPRMC,205441.00,A,5129.35711,N,00245.56341,W,0.825,,270821,,,A*6D
$GPVTG,,T,,M,0.825,N,1.527,K,A*2D
$GPGGA,205441.00,5129.35711,N,00245.56341,W,1,05,2.96,5.8,M,48.8,M,,*41
$GPGSA,A,3,15,05,23,13,18,,,,,,,,4.74,2.96,3.70*07
$GPGSV,3,1,11,05,26,192,26,10,09,327,,13,67,113,24,14,47,069,*75
$GPGSV,3,2,11,15,78,259,27,17,12,101,,18,06,271,18,19,01,125,*70
$GPGSV,3,3,11,23,33,304,17,28,56,093,17,30,18,071,*40
$GPGLL,5129.35711,N,00245.56341,W,205441.00,A,A*75
$GPRMC,205442.00,A,5129.35676,N,00245.56368,W,0.954,,270821,,,A*62
$GPVTG,,T,,M,0.954,N,1.766,K,A*2D
$GPGGA,205442.00,5129.35676,N,00245.56368,W,1,05,2.94,5.9,M,48.8,M,,*4A
$GPGSA,A,3,15,05,23,13,18,,,,,,,,4.38,2.94,3.25*0D
$GPGSV,3,1,11,05,26,192,26,10,09,327,,13,67,113,24,14,47,069,*75
$GPGSV,3,2,11,15,78,259,27,17,12,101,,18,06,271,16,19,01,125,*7E
$GPGSV,3,3,11,23,33,304,17,28,56,093,18,30,18,071,*4F
$GPGLL,5129.35676,N,00245.56368,W,205442.00,A,A*7D
$GPRMC,205443.00,A,5129.35661,N,00245.56417,W,0.945,,270821,,,A*6A
$GPVTG,,T,,M,0.945,N,1.750,K,A*28
$GPGGA,205443.00,5129.35661,N,00245.56417,W,1,05,2.94,5.9,M,48.8,M,,*42
$GPGSA,A,3,15,05,23,13,18,,,,,,,,4.38,2.94,3.25*0D
$GPGSV,3,1,11,05,26,192,27,10,09,327,,13,67,113,24,14,47,069,*74
$GPGSV,3,2,11,15,78,259,27,17,12,101,,18,06,271,14,19,01,125,*7C
$GPGSV,3,3,11,23,33,304,17,28,56,093,18,30,18,071,*4F
$GPGLL,5129.35661,N,00245.56417,W,205443.00,A,A*75
$GPRMC,205444.00,A,5129.35640,N,00245.56431,W,1.031,,270821,,,A*61
$GPVTG,,T,,M,1.031,N,1.910,K,A*29
$GPGGA,205444.00,5129.35640,N,00245.56431,W,1,05,2.94,6.0,M,48.8,M,,*48
$GPGSA,A,3,15,05,23,13,18,,,,,,,,4.38,2.94,3.25*0D
$GPGSV,3,1,11,05,26,192,26,10,09,327,,13,67,113,25,14,47,069,*74
$GPGSV,3,2,11,15,78,259,27,17,12,101,,18,06,271,12,19,01,125,*7A
$GPGSV,3,3,11,23,33,304,13,28,56,093,19,30,18,071,*4A
$GPGLL,5129.35640,N,00245.56431,W,205444.00,A,A*75
$GPRMC,205445.00,A,5129.35607,N,00245.56382,W,1.215,,270821,,,A*68
$GPVTG,,T,,M,1.215,N,2.250,K,A*21
$GPGGA,205445.00,5129.35607,N,00245.56382,W,1,04,2.96,6.2,M,48.8,M,,*44
$GPGSA,A,3,15,05,23,13,,,,,,,,,4.74,2.96,3.70*0E
$GPGSV,3,1,11,05,26,192,27,10,09,327,,13,67,113,24,14,47,069,*74
$GPGSV,3,2,11,15,78,259,27,17,12,101,,18,06,271,09,19,01,125,*70
$GPGSV,3,3,11,23,33,304,13,28,56,093,18,30,18,071,*4B
$GPGLL,5129.35607,N,00245.56382,W,205445.00,A,A*78
$GPRMC,205446.00,A,5129.35593,N,00245.56379,W,1.009,,270821,,,A*6E
$GPVTG,,T,,M,1.009,N,1.868,K,A*2C
$GPGGA,205446.00,5129.35593,N,00245.56379,W,1,04,2.96,6.3,M,48.8,M,,*4C
$GPGSA,A,3,15,05,23,13,,,,,,,,,4.74,2.96,3.70*0E
$GPGSV,3,1,11,05,26,192,27,10,09,327,,13,67,113,25,14,47,069,*75
$GPGSV,3,2,11,15,78,259,27,17,12,101,,18,06,271,08,19,01,125,*71
$GPGSV,3,3,11,23,33,304,13,28,56,093,18,30,18,071,*4B
$GPGLL,5129.35593,N,00245.56379,W,205446.00,A,A*71
$GPRMC,205447.00,A,5129.35579,N,00245.56381,W,0.847,,270821,,,A*6F
$GPVTG,,T,,M,0.847,N,1.568,K,A*22
$GPGGA,205447.00,5129.35579,N,00245.56381,W,1,04,2.96,6.4,M,48.8,M,,*49
$GPGSA,A,3,15,05,23,13,,,,,,,,,4.74,2.96,3.70*0E
$GPGSV,3,1,11,05,26,192,27,10,09,327,,13,67,113,25,14,47,069,*75
$GPGSV,3,2,11,15,78,259,27,17,12,101,,18,06,271,08,19,01,125,*71
$GPGSV,3,3,11,23,33,304,13,28,56,093,17,30,18,071,*44
$GPGLL,5129.35579,N,00245.56381,W,205447.00,A,A*73
$GPRMC,205448.00,A,5129.35550,N,00245.56358,W,1.049,,270821,,,A*68
$GPVTG,,T,,M,1.049,N,1.943,K,A*20
$GPGGA,205448.00,5129.35550,N,00245.56358,W,1,04,2.96,6.6,M,48.8,M,,*4B
$GPGSA,A,3,15,05,23,13,,,,,,,,,4.74,2.96,3.70*0E
$GPGSV,3,1,11,05,26,192,27,10,09,327,,13,67,113,24,14,47,069,*74
$GPGSV,3,2,11,15,78,259,27,17,12,101,,18,06,271,08,19,01,125,*71
$GPGSV,3,3,11,23,33,304,13,28,56,093,16,30,18,071,*45
$GPGLL,5129.35550,N,00245.56358,W,205448.00,A,A*73
$GPRMC,205449.00,A,5129.35524,N,00245.56335,W,1.121,,270821,,,A*6E
$GPVTG,,T,,M,1.121,N,2.076,K,A*23
$GPGGA,205449.00,5129.35524,N,00245.56335,W,1,04,2.96,6.8,M,48.8,M,,*4C
$GPGSA,A,3,15,05,23,13,,,,,,,,,4.74,2.96,3.70*0E
$GPGSV,3,1,11,05,26,192,27,10,09,327,,13,67,113,23,14,47,069,*73
$GPGSV,3,2,11,15,78,259,27,17,12,101,,18,06,271,08,19,01,125,*71
$GPGSV,3,3,11,23,33,304,13,28,56,093,17,30,18,071,*44
$GPGLL,5129.35524,N,00245.56335,W,205449.00,A,A*7A
$GPRMC,205450.00,A,5129.35497,N,00245.56289,W,1.511,,270821,,,A*6E
$GPVTG,,T,,M,1.511,N,2.798,K,A*23
$GPGGA,205450.00,5129.35497,N,00245.56289,W,1,05,2.94,7.0,M,48.8,M,,*41
$GPGSA,A,3,15,05,23,13,18,,,,,,,,4.38,2.94,3.24*0C
$GPGSV,3,1,11,05,26,192,27,10,09,327,,13,67,113,23,14,47,069,*73
$GPGSV,3,2,11,15,78,259,28,17,12,101,,18,06,271,16,19,01,125,*71
$GPGSV,3,3,11,23,33,304,10,28,56,093,17,30,18,071,*47
$GPGLL,5129.35497,N,00245.56289,W,205450.00,A,A*7D
$GPRMC,205451.00,A,5129.35494,N,00245.56377,W,0.918,,270821,,,A*68
$GPVTG,,T,,M,0.918,N,1.700,K,A*25
$GPGGA,205451.00,5129.35494,N,00245.56377,W,1,05,2.94,7.0,M,48.8,M,,*43
$GPGSA,A,3,15,05,23,13,18,,,,,,,,4.38,2.94,3.24*0C
$GPGSV,3,1,11,05,26,192,26,10,09,327,,13,67,113,23,14,47,069,*72
$GPGSV,3,2,11,15,78,259,28,17,12,101,,18,06,271,13,19,01,125,*74
$GPGSV,3,3,11,23,33,304,10,28,56,093,18,30,18,071,*48
$GPGLL,5129.35494,N,00245.56377,W,205451.00,A,A*7F
$GPRMC,205452.00,A,5129.35507,N,00245.56471,W,0.464,,270821,,,A*67
$GPVTG,,T,,M,0.464,N,0.860,K,A*2B
$GPGGA,205452.00,5129.35507,N,00245.56471,W,1,05,2.94,7.0,M,48.8,M,,*4A
$GPGSA,A,3,15,05,23,13,18,,,,,,,,4.38,2.94,3.24*0C
$GPGSV,3,1,11,05,26,192,26,10,09,327,,13,67,113,24,14,47,069,*75
$GPGSV,3,2,11,15,78,259,27,17,12,101,,18,06,271,18,19,01,125,*70
$GPGSV,3,3,11,23,33,304,10,28,56,093,18,30,18,071,*48
$GPGLL,5129.35507,N,00245.56471,W,205452.00,A,A*76
$GPRMC,205453.00,A,5129.35511,N,00245.56522,W,0.443,,270821,,,A*63
$GPVTG,,T,,M,0.443,N,0.820,K,A*2A
$GPGGA,205453.00,5129.35511,N,00245.56522,W,1,05,2.94,6.9,M,48.8,M,,*43
$GPGSA,A,3,15,05,23,13,18,,,,,,,,4.38,2.94,3.24*0C
$GPGSV,3,1,11,05,26,192,26,10,09,327,,13,67,113,23,14,47,069,*72
$GPGSV,3,2,11,15,78,259,26,17,12,101,,18,06,271,19,19,01,125,*70
$GPGSV,3,3,11,23,33,304,09,28,56,093,18,30,18,071,*40
$GPGLL,5129.35511,N,00245.56522,W,205453.00,A,A*77
$GPRMC,205454.00,A,5129.35529,N,00245.56601,W,0.199,,270821,,,A*6F
$GPVTG,,T,,M,0.199,N,0.369,K,A*2E
$GPGGA,205454.00,5129.35529,N,00245.56601,W,1,05,2.94,6.9,M,48.8,M,,*4D
$GPGSA,A,3,15,05,23,13,18,,,,,,,,4.38,2.94,3.24*0C
$GPGSV,3,1,11,05,26,192,26,10,09,327,,13,67,113,23,14,47,069,*72
$GPGSV,3,2,11,15,78,259,27,17,12,101,,18,06,271,18,19,01,125,*70
$GPGSV,3,3,11,23,33,304,09,28,56,093,20,30,18,071,*4B
$GPGLL,5129.35529,N,00245.56601,W,205454.00,A,A*79
$GPRMC,205455.00,A,5129.35560,N,00245.56724,W,0.630,,270821,,,A*61
$GPVTG,,T,,M,0.630,N,1.167,K,A*27
$GPGGA,205455.00,5129.35560,N,00245.56724,W,1,05,2.94,6.7,M,48.8,M,,*49
$GPGSA,A,3,15,05,23,13,18,,,,,,,,4.38,2.94,3.24*0C
$GPGSV,3,1,11,05,26,192,27,10,09,327,,13,67,113,24,14,47,069,*74
$GPGSV,3,2,11,15,78,259,27,17,12,101,,18,06,271,17,19,01,125,*7F
$GPGSV,3,3,11,23,33,304,10,28,56,093,21,30,18,071,*42
$GPGLL,5129.35560,N,00245.56724,W,205455.00,A,A*73
$GPRMC,205456.00,A,5129.35567,N,00245.56770,W,0.471,,270821,,,A*63
$GPVTG,,T,,M,0.471,N,0.872,K,A*2C
$GPGGA,205456.00,5129.35567,N,00245.56770,W,1,05,2.94,6.7,M,48.8,M,,*4C
$GPGSA,A,3,15,05,23,13,18,,,,,,,,4.38,2.94,3.24*0C
$GPGSV,3,1,11,05,26,192,27,10,09,327,,13,67,113,24,14,47,069,*74
$GPGSV,3,2,11,15,78,259,27,17,12,101,,18,06,271,16,19,01,125,*7E
$GPGSV,3,3,11,23,33,304,12,28,56,093,20,30,18,071,*41
$GPGLL,5129.35567,N,00245.56770,W,205456.00,A,A*76
$GPRMC,205457.00,A,5129.35579,N,00245.56817,W,0.404,,270821,,,A*61
$GPVTG,,T,,M,0.404,N,0.748,K,A*28
$GPGGA,205457.00,5129.35579,N,00245.56817,W,1,05,2.94,6.7,M,48.8,M,,*4C
$GPGSA,A,3,15,05,23,13,18,,,,,,,,4.38,2.94,3.24*0C
$GPGSV,3,1,11,05,26,192,27,10,09,327,,13,67,113,24,14,47,069,*74
$GPGSV,3,2,11,15,78,259,27,17,12,101,,18,06,271,16,19,01,125,*7E
$GPGSV,3,3,11,23,33,304,12,28,56,093,20,30,18,071,*41
$GPGLL,5129.35579,N,00245.56817,W,205457.00,A,A*76
$GPRMC,205458.00,A,5129.35575,N,00245.56827,W,0.297,,270821,,,A*6D
$GPVTG,,T,,M,0.297,N,0.550,K,A*2F
$GPGGA,205458.00,5129.35575,N,00245.56827,W,1,05,2.94,6.8,M,48.8,M,,*43
$GPGSA,A,3,15,05,23,13,18,,,,,,,,4.37,2.94,3.24*03
$GPGSV,3,1,11,05,26,192,27,10,09,327,,13,67,113,24,14,47,069,*74
$GPGSV,3,2,11,15,78,259,28,17,12,101,,18,06,271,16,19,01,125,*71
$GPGSV,3,3,11,23,33,304,12,28,56,093,21,30,18,071,*40
$GPGLL,5129.35575,N,00245.56827,W,205458.00,A,A*76
$GPRMC,205459.00,A,5129.35580,N,00245.56884,W,0.294,,270821,,,A*6C
$GPVTG,,T,,M,0.294,N,0.544,K,A*29
$GPGGA,205459.00,5129.35580,N,00245.56884,W,1,05,2.94,6.8,M,48.8,M,,*41
$GPGSA,A,3,15,05,23,13,18,,,,,,,,4.37,2.94,3.24*03
$GPGSV,3,1,11,05,26,192,27,10,09,327,,13,67,113,25,14,47,069,*75
$GPGSV,3,2,11,15,78,259,28,17,12,101,,18,06,271,18,19,01,125,*7F
$GPGSV,3,3,11,23,33,304,12,28,56,093,21,30,18,071,*40
$GPGLL,5129.35580,N,00245.56884,W,205459.00,A,A*74
$GPRMC,205500.00,A,5129.35600,N,00245.56929,W,0.203,,270821,,,A*62
$GPVTG,,T,,M,0.203,N,0.376,K,A*20
$GPGGA,205500.00,5129.35600,N,00245.56929,W,1,05,2.94,6.7,M,48.8,M,,*4E
$GPGSA,A,3,15,05,23,13,18,,,,,,,,4.37,2.94,3.24*03
$GPGSV,3,1,11,05,26,192,27,10,09,327,,13,67,113,25,14,47,069,*75
$GPGSV,3,2,11,15,78,259,28,17,12,101,,18,06,271,20,19,01,125,*74
$GPGSV,3,3,11,23,33,304,12,28,56,093,20,30,18,071,*41
$GPGLL,5129.35600,N,00245.56929,W,205500.00,A,A*74
$GPRMC,205501.00,A,5129.35619,N,00245.56992,W,0.359,,270821,,,A*65
$GPVTG,,T,,M,0.359,N,0.665,K,A*29
$GPGGA,205501.00,5129.35619,N,00245.56992,W,1,05,2.94,6.7,M,48.8,M,,*47
$GPGSA,A,3,15,05,23,13,18,,,,,,,,4.37,2.94,3.24*03
$GPGSV,3,1,11,05,26,192,27,10,09,327,,13,67,113,25,14,47,069,*75
$GPGSV,3,2,11,15,78,259,28,17,12,101,,18,06,271,22,19,01,125,*76
$GPGSV,3,3,11,23,33,304,12,28,56,093,20,30,18,071,*41
$GPGLL,5129.35619,N,00245.56992,W,205501.00,A,A*7D
$GPRMC,205502.00,A,5129.35620,N,00245.57020,W,0.091,,270821,,,A*6A
$GPVTG,,T,,M,0.091,N,0.169,K,A*25
$GPGGA,205502.00,5129.35620,N,00245.57020,W,1,05,2.94,6.8,M,48.8,M,,*40
$GPGSA,A,3,15,05,23,13,18,,,,,,,,4.37,2.94,3.24*03
$GPGSV,3,1,11,05,26,192,27,10,09,327,,13,67,113,25,14,47,069,*75
$GPGSV,3,2,11,15,78,259,28,17,12,101,,18,06,271,22,19,01,125,*76
$GPGSV,3,3,11,23,33,304,17,28,56,093,20,30,18,071,*44
$GPGLL,5129.35620,N,00245.57020,W,205502.00,A,A*75
$GPRMC,205503.00,A,5129.35627,N,00245.57055,W,0.021,,270821,,,A*65
$GPVTG,,T,,M,0.021,N,0.039,K,A*2A
$GPGGA,205503.00,5129.35627,N,00245.57055,W,1,05,2.94,6.8,M,48.8,M,,*44
$GPGSA,A,3,15,05,23,13,18,,,,,,,,4.37,2.94,3.24*03
$GPGSV,3,1,11,05,26,192,27,10,09,327,,13,67,113,25,14,47,069,*75
$GPGSV,3,2,11,15,78,259,27,17,12,101,,18,06,271,23,19,01,125,*78
$GPGSV,3,3,11,23,33,304,17,28,56,093,20,30,18,071,*44
$GPGLL,5129.35627,N,00245.57055,W,205503.00,A,A*71
$GPRMC,205504.00,A,5129.35627,N,00245.57106,W,0.192,,270821,,,A*6C
$GPVTG,,T,,M,0.192,N,0.355,K,A*2A
$GPGGA,205504.00,5129.35627,N,00245.57106,W,1,05,2.94,6.9,M,48.8,M,,*45
$GPGSA,A,3,15,05,23,13,18,,,,,,,,4.37,2.94,3.24*03
$GPGSV,3,1,11,05,26,192,27,10,09,327,,13,67,113,24,14,47,069,*74
$GPGSV,3,2,11,15,78,259,27,17,12,101,,18,06,271,22,19,01,125,*79
$GPGSV,3,3,11,23,33,304,17,28,56,093,19,30,18,071,*4E
$GPGLL,5129.35627,N,00245.57106,W,205504.00,A,A*71
$GPRMC,205505.00,A,5129.35619,N,00245.57133,W,0.254,,270821,,,A*6F
$GPVTG,,T,,M,0.254,N,0.471,K,A*22
$GPGGA,205505.00,5129.35619,N,00245.57133,W,1,05,2.94,7.0,M,48.8,M,,*47
$GPGSA,A,3,15,05,23,13,18,,,,,,,,4.37,2.94,3.24*03
$GPGSV,3,1,11,05,26,192,26,10,09,327,,13,67,113,24,14,47,069,*75
$GPGSV,3,2,11,15,78,259,27,17,12,101,,18,06,271,22,19,01,125,*79
$GPGSV,3,3,11,23,33,304,17,28,56,093,19,30,18,071,*4E
$GPGLL,5129.35619,N,00245.57133,W,205505.00,A,A*7B
$GPRMC,205506.00,A,5129.35620,N,00245.57147,W,0.174,,270821,,,A*64
$GPVTG,,T,,M,0.174,N,0.322,K,A*22
$GPGGA,205506.00,5129.35620,N,00245.57147,W,1,05,2.94,7.0,M,48.8,M,,*4D
$GPGSA,A,3,15,05,23,13,18,,,,,,,,4.37,2.94,3.24*03
$GPGSV,3,1,11,05,26,192,26,10,09,327,,13,67,113,24,14,47,069,*75
$GPGSV,3,2,11,15,78,259,27,17,12,101,,18,06,271,22,19,01,125,*79
$GPGSV,3,3,11,23,33,304,17,28,56,093,19,30,18,071,*4E
$GPGLL,5129.35620,N,00245.57147,W,205506.00,A,A*71
$GPRMC,205507.00,A,5129.35603,N,00245.57127,W,0.480,,270821,,,A*6C
$GPVTG,,T,,M,0.480,N,0.889,K,A*26
$GPGGA,205507.00,5129.35603,N,00245.57127,W,1,05,2.94,7.2,M,48.8,M,,*49
$GPGSA,A,3,15,05,23,13,18,,,,,,,,4.37,2.94,3.24*03
$GPGSV,3,1,11,05,26,192,25,10,09,327,,13,67,113,24,14,47,069,*76
$GPGSV,3,2,11,15,78,259,27,17,12,101,,18,06,271,20,19,01,125,*7B
$GPGSV,3,3,11,23,33,304,17,28,56,093,18,30,18,071,*4F
$GPGLL,5129.35603,N,00245.57127,W,205507.00,A,A*77
!AIVDM,1,1,,A,B3P8C0h007tmj8WGIPH>?wSWCP06,0*7E
!AIVDM,1,1,,A,B3P8C0h007tmj8WGIPH>?wSWCP06,0*7E
$GPRMC,205508.00,A,5129.35601,N,00245.57151,W,0.298,,270821,,,A*6F
$GPVTG,,T,,M,0.298,N,0.552,K,A*22
$GPGGA,205508.00,5129.35601,N,00245.57151,W,1,05,2.94,7.3,M,48.8,M,,*44
$GPGSA,A,3,15,05,23,13,18,,,,,,,,4.37,2.94,3.24*03
$GPGSV,3,1,11,05,26,192,26,10,09,327,,13,67,113,23,14,47,069,*72
$GPGSV,3,2,11,15,78,259,26,17,12,101,,18,06,271,20,19,01,125,*7A
$GPGSV,3,3,11,23,33,304,13,28,56,093,19,30,18,071,*4A
$GPGLL,5129.35601,N,00245.57151,W,205508.00,A,A*7B
$GPRMC,205509.00,A,5129.35604,N,00245.57192,W,0.016,,270821,,,A*60
$GPVTG,,T,,M,0.016,N,0.030,K,A*27
$GPGGA,205509.00,5129.35604,N,00245.57192,W,1,05,2.94,7.3,M,48.8,M,,*4F
$GPGSA,A,3,15,05,23,13,18,,,,,,,,4.37,2.94,3.24*03
$GPGSV,3,1,11,05,26,192,25,10,09,327,,13,67,113,23,14,47,069,*71
$GPGSV,3,2,11,15,78,259,26,17,12,101,,18,06,271,18,19,01,125,*71
$GPGSV,3,3,11,23,33,304,13,28,56,093,18,30,18,071,*4B
$GPGLL,5129.35604,N,00245.57192,W,205509.00,A,A*70
$GPRMC,205510.00,A,5129.35628,N,00245.57279,W,0.561,,270821,,,A*65
$GPVTG,,T,,M,0.561,N,1.040,K,A*24
$GPGGA,205510.00,5129.35628,N,00245.57279,W,1,05,2.94,7.3,M,48.8,M,,*4F
$GPGSA,A,3,15,05,23,13,18,,,,,,,,4.37,2.94,3.24*03
$GPGSV,3,1,11,05,26,192,25,10,09,327,,13,67,113,23,14,47,069,*71
$GPGSV,3,2,11,15,78,259,26,17,12,101,,18,06,271,18,19,01,125,*71
$GPGSV,3,3,11,23,33,304,13,28,56,093,18,30,18,071,*4B
$GPGLL,5129.35628,N,00245.57279,W,205510.00,A,A*70
$GPRMC,205511.00,A,5129.35664,N,00245.57346,W,0.868,,270821,,,A*65
$GPVTG,,T,,M,0.868,N,1.607,K,A*25
$GPGGA,205511.00,5129.35664,N,00245.57346,W,1,05,2.94,7.2,M,48.8,M,,*4A
$GPGSA,A,3,15,05,23,13,18,,,,,,,,4.37,2.94,3.24*03
$GPGSV,3,1,11,05,26,192,25,10,09,327,,13,67,114,23,14,47,069,*76
$GPGSV,3,2,11,15,78,259,27,17,12,101,,18,06,271,19,19,01,125,*71
$GPGSV,3,3,11,23,33,304,13,28,56,093,19,30,18,071,*4A
$GPGLL,5129.35664,N,00245.57346,W,205511.00,A,A*74
$GPRMC,205512.00,A,5129.35723,N,00245.57442,W,1.494,,270821,,,A*69
$GPVTG,,T,,M,1.494,N,2.766,K,A*2E
$GPGGA,205512.00,5129.35723,N,00245.57442,W,1,05,2.94,7.1,M,48.8,M,,*4B
$GPGSA,A,3,15,05,23,13,18,,,,,,,,4.37,2.94,3.24*03
$GPGSV,3,1,11,05,26,192,25,10,09,327,,13,67,114,23,14,47,068,*77
$GPGSV,3,2,11,15,78,259,27,17,12,101,,18,06,271,20,19,01,125,*7B
$GPGSV,3,3,11,23,33,304,13,28,56,093,19,30,18,071,*4A
$GPGLL,5129.35723,N,00245.57442,W,205512.00,A,A*76
$GPRMC,205513.00,A,5129.35756,N,00245.57488,W,1.366,,270821,,,A*66
$GPVTG,,T,,M,1.366,N,2.530,K,A*25
$GPGGA,205513.00,5129.35756,N,00245.57488,W,1,05,2.94,7.0,M,48.8,M,,*4F
$GPGSA,A,3,15,05,23,13,18,,,,,,,,4.37,2.94,3.24*03
$GPGSV,3,1,11,05,26,192,25,10,09,327,,13,67,114,23,14,47,068,*77
$GPGSV,3,2,11,15,78,257,28,17,12,101,,18,06,271,21,19,01,125,*7B
$GPGSV,3,3,11,23,33,304,13,28,56,093,19,30,18,071,*4A
$GPGLL,5129.35756,N,00245.57488,W,205513.00,A,A*73
$GPRMC,205514.00,A,5129.35793,N,00245.57535,W,1.308,,270821,,,A*67
$GPVTG,,T,,M,1.308,N,2.422,K,A*2F
$GPGGA,205514.00,5129.35793,N,00245.57535,W,1,05,2.94,6.9,M,48.8,M,,*4E
$GPGSA,A,3,15,05,23,13,18,,,,,,,,4.37,2.94,3.24*03
$GPGSV,3,1,11,05,26,192,26,10,09,327,,13,67,114,23,14,47,068,*74
$GPGSV,3,2,11,15,78,257,28,17,12,101,,18,06,271,22,19,01,125,*78
$GPGSV,3,3,11,23,33,304,10,28,56,093,19,30,18,071,*49
$GPGLL,5129.35793,N,00245.57535,W,205514.00,A,A*7A
$GPRMC,205515.00,A,5129.35836,N,00245.57568,W,1.244,,270821,,,A*67
$GPVTG,,T,,M,1.244,N,2.304,K,A*25
$GPGGA,205515.00,5129.35836,N,00245.57568,W,1,05,2.94,6.9,M,48.8,M,,*47
$GPGSA,A,3,15,05,23,13,18,,,,,,,,4.37,2.94,3.24*03
$GPGSV,3,1,11,05,26,192,26,10,09,327,,13,67,114,24,14,47,068,*73
$GPGSV,3,2,11,15,78,257,28,17,13,101,,18,06,271,23,19,01,125,*78
$GPGSV,3,3,11,23,33,304,10,28,56,093,18,30,18,071,*48
$GPGLL,5129.35836,N,00245.57568,W,205515.00,A,A*73
$GPRMC,205516.00,A,5129.35867,N,00245.57576,W,0.962,,270821,,,A*61
$GPVTG,,T,,M,0.962,N,1.781,K,A*21
$GPGGA,205516.00,5129.35867,N,00245.57576,W,1,05,2.94,6.8,M,48.8,M,,*4E
$GPGSA,A,3,15,05,23,13,18,,,,,,,,4.37,2.94,3.24*03
$GPGSV,3,1,11,05,26,192,26,10,09,327,,13,67,114,23,14,47,068,*74
$GPGSV,3,2,11,15,78,257,28,17,13,101,,18,06,270,22,19,01,125,*78
$GPGSV,3,3,11,23,33,304,10,28,56,093,19,30,18,071,*49
$GPGLL,5129.35867,N,00245.57576,W,205516.00,A,A*7B
$GPRMC,205517.00,A,5129.35902,N,00245.57623,W,1.087,,270821,,,A*62
$GPVTG,,T,,M,1.087,N,2.012,K,A*2C
$GPGGA,205517.00,5129.35902,N,00245.57623,W,1,05,2.94,6.7,M,48.8,M,,*41
$GPGSA,A,3,15,05,23,13,18,,,,,,,,4.37,2.94,3.24*03
$GPGSV,3,1,11,05,26,192,27,10,09,327,,13,67,114,23,14,47,068,*75
$GPGSV,3,2,11,15,78,257,28,17,13,101,,18,06,270,21,19,01,125,*7B
$GPGSV,3,3,11,23,33,304,10,28,56,093,20,30,18,071,*43
$GPGLL,5129.35902,N,00245.57623,W,205517.00,A,A*7B
$GPRMC,205518.00,A,5129.35949,N,00245.57679,W,1.352,,270821,,,A*66
$GPVTG,,T,,M,1.352,N,2.503,K,A*22
$GPGGA,205518.00,5129.35949,N,00245.57679,W,1,05,2.94,6.4,M,48.8,M,,*4D
$GPGSA,A,3,15,05,23,13,18,,,,,,,,4.37,2.94,3.23*04
$GPGSV,3,1,11,05,26,192,28,10,09,327,,13,67,114,24,14,47,068,*7D
$GPGSV,3,2,11,15,78,257,28,17,13,101,,18,06,270,20,19,01,125,*7A
$GPGSV,3,3,11,23,33,304,10,28,56,093,20,30,18,071,*43
$GPGLL,5129.35949,N,00245.57679,W,205518.00,A,A*74
$GPRMC,205519.00,A,5129.35958,N,00245.57626,W,0.455,,270821,,,A*6C
$GPVTG,,T,,M,0.455,N,0.843,K,A*28
$GPGGA,205519.00,5129.35958,N,00245.57626,W,1,05,2.94,6.4,M,48.8,M,,*46
$GPGSA,A,3,15,05,23,13,18,,,,,,,,4.37,2.94,3.23*04
$GPGSV,3,1,11,05,26,192,28,10,09,327,,13,67,114,24,14,47,068,*7D
$GPGSV,3,2,11,15,78,257,28,17,13,101,,18,06,270,19,19,01,125,*70
$GPGSV,3,3,11,23,33,304,10,28,56,093,21,30,18,071,*42
$GPGLL,5129.35958,N,00245.57626,W,205519.00,A,A*7F
$GPRMC,205520.00,A,5129.35986,N,00245.57636,W,0.301,,270821,,,A*62
$GPVTG,,T,,M,0.301,N,0.557,K,A*26
$GPGGA,205520.00,5129.35986,N,00245.57636,W,1,05,2.94,6.3,M,48.8,M,,*49
$GPGSA,A,3,15,05,23,13,18,,,,,,,,4.37,2.94,3.23*04
$GPGSV,3,1,11,05,26,192,28,10,09,327,,13,67,114,24,14,47,068,*7D
$GPGSV,3,2,11,15,78,257,28,17,13,101,,18,06,270,17,19,01,125,*7E
$GPGSV,3,3,11,23,33,304,16,28,56,093,21,30,18,071,*44
$GPGLL,5129.35986,N,00245.57636,W,205520.00,A,A*77
$GPRMC,205521.00,A,5129.36019,N,00245.57668,W,0.387,,270821,,,A*6A
$GPVTG,,T,,M,0.387,N,0.717,K,A*2E
$GPGGA,205521.00,5129.36019,N,00245.57668,W,1,05,2.94,6.1,M,48.8,M,,*4D
$GPGSA,A,3,15,05,23,13,18,,,,,,,,4.37,2.94,3.23*04
$GPGSV,3,1,11,05,26,192,29,10,09,327,,13,67,114,24,14,47,068,*7C
$GPGSV,3,2,11,15,78,257,27,17,13,101,,18,06,270,14,19,01,125,*72
$GPGSV,3,3,11,23,34,304,16,28,56,093,20,30,18,071,*42
$GPGLL,5129.36019,N,00245.57668,W,205521.00,A,A*71
$GPRMC,205522.00,A,5129.36059,N,00245.57696,W,0.560,,270821,,,A*63
$GPVTG,,T,,M,0.560,N,1.037,K,A*25
$GPGGA,205522.00,5129.36059,N,00245.57696,W,1,05,2.94,5.9,M,48.8,M,,*40
$GPGSA,A,3,15,05,23,13,18,,,,,,,,4.37,2.94,3.23*04
$GPGSV,3,1,11,05,26,192,29,10,09,327,,13,67,114,23,14,47,068,*7B
$GPGSV,3,2,11,15,78,257,27,17,13,101,,18,06,270,13,19,01,125,*75
$GPGSV,3,3,11,23,34,304,16,28,56,093,20,30,18,071,*42
$GPGLL,5129.36059,N,00245.57696,W,205522.00,A,A*77
$GPRMC,205523.00,A,5129.36114,N,00245.57795,W,1.184,,270821,,,A*67
$GPVTG,,T,,M,1.184,N,2.194,K,A*21
$GPGGA,205523.00,5129.36114,N,00245.57795,W,1,05,2.93,5.6,M,48.8,M,,*43
$GPGSA,A,3,15,05,23,13,18,,,,,,,,4.37,2.93,3.23*03
$GPGSV,3,1,11,05,26,192,29,10,09,327,,13,67,114,23,14,47,068,*7B
$GPGSV,3,2,11,15,78,257,27,17,13,101,,18,06,270,11,19,01,125,*77
$GPGSV,3,3,11,23,34,304,16,28,56,093,18,30,18,071,*49
$GPGLL,5129.36114,N,00245.57795,W,205523.00,A,A*7C
$GPRMC,205524.00,A,5129.36167,N,00245.57834,W,1.295,,270821,,,A*63
$GPVTG,,T,,M,1.295,N,2.398,K,A*2C
$GPGGA,205524.00,5129.36167,N,00245.57834,W,1,05,2.93,5.3,M,48.8,M,,*41
$GPGSA,A,3,15,05,23,13,18,,,,,,,,4.37,2.93,3.23*03
$GPGSV,3,1,11,05,26,192,29,10,09,327,,13,67,114,23,14,47,068,*7B
$GPGSV,3,2,11,15,78,257,27,17,13,101,,18,06,270,12,19,01,125,*74
$GPGSV,3,3,11,23,34,304,16,28,56,093,18,30,18,071,*49
$GPGLL,5129.36167,N,00245.57834,W,205524.00,A,A*7B
$GPRMC,205525.00,A,5129.36201,N,00245.57861,W,1.135,,270821,,,A*68
$GPVTG,,T,,M,1.135,N,2.102,K,A*24
$GPGGA,205525.00,5129.36201,N,00245.57861,W,1,05,2.93,5.1,M,48.8,M,,*41
$GPGSA,A,3,15,05,23,13,18,,,,,,,,4.37,2.93,3.23*03
$GPGSV,3,1,11,05,26,192,29,10,09,327,,13,67,114,22,14,47,068,*7A
$GPGSV,3,2,11,15,78,257,27,17,13,101,,18,06,270,12,19,01,125,*74
$GPGSV,3,3,11,23,34,304,16,28,56,093,18,30,18,071,*49
$GPGLL,5129.36201,N,00245.57861,W,205525.00,A,A*79
$GPRMC,205526.00,A,5129.36237,N,00245.57901,W,1.170,,270821,,,A*68
$GPVTG,,T,,M,1.170,N,2.167,K,A*26
$GPGGA,205526.00,5129.36237,N,00245.57901,W,1,05,2.93,4.8,M,48.8,M,,*48
$GPGSA,A,3,15,05,23,13,18,,,,,,,,4.37,2.93,3.23*03
$GPGSV,3,1,11,05,26,192,28,10,09,327,,13,67,114,23,14,47,068,*7A
$GPGSV,3,2,11,15,78,257,28,17,13,101,,18,06,270,16,19,01,125,*7F
$GPGSV,3,3,11,23,34,304,15,28,56,092,18,30,18,071,*4B
$GPGLL,5129.36237,N,00245.57901,W,205526.00,A,A*78
$GPRMC,205527.00,A,5129.36269,N,00245.57902,W,1.037,,270821,,,A*63
$GPVTG,,T,,M,1.037,N,1.921,K,A*2D
$GPGGA,205527.00,5129.36269,N,00245.57902,W,1,05,2.93,4.7,M,48.8,M,,*4E
$GPGSA,A,3,15,05,23,13,18,,,,,,,,4.37,2.93,3.23*03
$GPGSV,3,1,11,05,26,192,28,10,09,327,,13,67,114,22,14,47,068,*7B
$GPGSV,3,2,11,15,78,257,27,17,13,101,,18,06,270,18,19,01,125,*7E
$GPGSV,3,3,11,23,34,304,15,28,56,092,19,30,18,071,*4A
$GPGLL,5129.36269,N,00245.57902,W,205527.00,A,A*71
$GPRMC,205528.00,A,5129.36292,N,00245.57844,W,0.705,,270821,,,A*6C
$GPVTG,,T,,M,0.705,N,1.306,K,A*25
$GPGGA,205528.00,5129.36292,N,00245.57844,W,1,05,2.93,4.7,M,48.8,M,,*46
$GPGSA,A,3,15,05,23,13,18,,,,,,,,4.37,2.93,3.23*03
$GPGSV,3,1,11,05,26,192,28,10,09,327,,13,67,114,22,14,47,068,*7B
$GPGSV,3,2,11,15,78,257,27,17,13,101,,18,06,270,19,19,01,125,*7F
$GPGSV,3,3,11,23,34,304,15,28,56,092,19,30,18,071,*4A
$GPGLL,5129.36292,N,00245.57844,W,205528.00,A,A*79
!AIVDM,1,1,,A,B3MAn@P007tml>WGIh3<=`f5CP06,0*7C
!AIVDM,1,1,,A,B3MAn@P007tml>WGIh3<=`f5CP06,0*7C
$GPRMC,205529.00,A,5129.36314,N,00245.57878,W,0.742,,270821,,,A*6E
$GPVTG,,T,,M,0.742,N,1.374,K,A*23
$GPGGA,205529.00,5129.36314,N,00245.57878,W,1,05,2.93,4.6,M,48.8,M,,*46
$GPGSA,A,3,15,05,23,13,18,,,,,,,,4.36,2.93,3.23*02
$GPGSV,3,1,11,05,26,192,28,10,09,327,,13,67,114,22,14,47,068,*7B
$GPGSV,3,2,11,15,78,257,27,17,13,101,,18,06,270,20,19,01,125,*75
$GPGSV,3,3,11,23,34,304,15,28,56,092,19,30,18,071,*4A
$GPGLL,5129.36314,N,00245.57878,W,205529.00,A,A*78
$GPRMC,205530.00,A,5129.36342,N,00245.57867,W,0.768,,270821,,,A*63
$GPVTG,,T,,M,0.768,N,1.422,K,A*2F
$GPGGA,205530.00,5129.36342,N,00245.57867,W,1,05,2.93,4.6,M,48.8,M,,*43
$GPGSA,A,3,15,05,23,13,18,,,,,,,,4.36,2.93,3.23*02
$GPGSV,3,1,11,05,26,192,28,10,09,327,,13,67,114,22,14,47,068,*7B
$GPGSV,3,2,11,15,78,257,27,17,13,101,,18,06,270,19,19,01,125,*7F
$GPGSV,3,3,11,23,34,304,15,28,56,092,20,30,18,071,*40
$GPGLL,5129.36342,N,00245.57867,W,205530.00,A,A*7D
$GPRMC,205531.00,A,5129.36370,N,00245.57897,W,0.868,,270821,,,A*63
$GPVTG,,T,,M,0.868,N,1.608,K,A*2A
$GPGGA,205531.00,5129.36370,N,00245.57897,W,1,05,2.93,4.4,M,48.8,M,,*4E
$GPGSA,A,3,15,05,23,13,18,,,,,,,,4.36,2.93,3.23*02
$GPGSV,3,1,11,05,26,192,29,10,09,327,,13,67,114,23,14,47,068,*7B
$GPGSV,3,2,11,15,78,257,27,17,13,101,,18,06,270,18,19,01,125,*7E
$GPGSV,3,3,11,23,34,304,15,28,56,092,21,30,18,071,*41
$GPGLL,5129.36370,N,00245.57897,W,205531.00,A,A*72
$GPRMC,205532.00,A,5129.36398,N,00245.57920,W,0.991,,270821,,,A*6C
$GPVTG,,T,,M,0.991,N,1.835,K,A*2D
$GPGGA,205532.00,5129.36398,N,00245.57920,W,1,05,2.93,4.2,M,48.8,M,,*40
$GPGSA,A,3,15,05,23,13,18,,,,,,,,4.36,2.93,3.23*02
$GPGSV,3,1,11,05,26,192,28,10,09,327,,13,67,114,22,14,47,068,*7B
$GPGSV,3,2,11,15,78,257,26,17,13,101,,18,06,270,15,19,01,125,*72
$GPGSV,3,3,11,23,34,304,14,28,56,092,20,30,18,071,*41
$GPGLL,5129.36398,N,00245.57920,W,205532.00,A,A*7A
$GPRMC,205533.00,A,5129.36441,N,00245.57925,W,1.211,,270821,,,A*69
$GPVTG,,T,,M,1.211,N,2.242,K,A*26
$GPGGA,205533.00,5129.36441,N,00245.57925,W,1,05,2.93,3.8,M,48.8,M,,*4A
$GPGSA,A,3,15,05,23,13,18,,,,,,,,4.36,2.93,3.23*02
$GPGSV,3,1,11,05,26,192,28,10,09,327,,13,67,114,23,14,47,068,*7A
$GPGSV,3,2,11,15,78,257,27,17,13,101,,18,06,270,16,19,01,125,*70
$GPGSV,3,3,11,23,34,304,14,28,56,092,21,30,18,071,*40
$GPGLL,5129.36441,N,00245.57925,W,205533.00,A,A*7D
$GPRMC,205534.00,A,5129.36473,N,00245.57945,W,1.253,,270821,,,A*6F
$GPVTG,,T,,M,1.253,N,2.320,K,A*25
$GPGGA,205534.00,5129.36473,N,00245.57945,W,1,05,2.93,3.5,M,48.8,M,,*47
$GPGSA,A,3,15,05,23,13,18,,,,,,,,4.36,2.93,3.23*02
$GPGSV,3,1,11,05,26,192,28,10,09,327,,13,67,114,23,14,47,068,*7A
$GPGSV,3,2,11,15,78,257,27,17,13,101,,18,06,270,16,19,01,125,*70
$GPGSV,3,3,11,23,34,304,14,28,56,092,21,30,18,071,*40
$GPGLL,5129.36473,N,00245.57945,W,205534.00,A,A*7D
$GPRMC,205535.00,A,5129.36530,N,00245.58002,W,1.735,,270821,,,A*68
$GPVTG,,T,,M,1.735,N,3.213,K,A*20
$GPGGA,205535.00,5129.36530,N,00245.58002,W,1,05,2.93,2.9,M,48.8,M,,*48
$GPGSA,A,3,15,05,23,13,18,,,,,,,,4.36,2.93,3.23*02
$GPGSV,3,1,11,05,26,192,28,10,09,327,,13,67,114,22,14,47,068,*7B
$GPGSV,3,2,11,15,78,257,27,17,13,101,,18,06,270,16,19,01,125,*70
$GPGSV,3,3,11,23,34,304,14,28,56,092,21,30,18,071,*40
$GPGLL,5129.36530,N,00245.58002,W,205535.00,A,A*7F
$GPRMC,205536.00,A,5129.36555,N,00245.58037,W,1.623,,270821,,,A*68
$GPVTG,,T,,M,1.623,N,3.006,K,A*20
$GPGGA,205536.00,5129.36555,N,00245.58037,W,1,05,2.93,2.6,M,48.8,M,,*41
$GPGSA,A,3,15,05,23,13,18,,,,,,,,4.36,2.93,3.23*02
$GPGSV,3,1,11,05,26,192,28,10,09,327,,13,67,114,22,14,47,068,*7B
$GPGSV,3,2,11,15,78,257,27,17,13,101,,18,06,270,14,19,01,125,*72
$GPGSV,3,3,11,23,34,304,14,28,56,092,21,30,18,071,*40
$GPGLL,5129.36555,N,00245.58037,W,205536.00,A,A*79
$GPRMC,205537.00,A,5129.36573,N,00245.57999,W,1.232,,270821,,,A*6B
$GPVTG,,T,,M,1.232,N,2.282,K,A*2B
$GPGGA,205537.00,5129.36573,N,00245.57999,W,1,05,3.09,2.4,M,48.8,M,,*46
$GPGSA,A,3,15,05,23,13,18,,,,,,,,4.48,3.09,3.24*0E
$GPGSV,3,1,11,05,26,192,28,10,09,327,,13,67,114,22,14,47,068,*7B
$GPGSV,3,2,11,15,78,257,26,17,13,101,,18,06,270,14,19,01,125,*73
$GPGSV,3,3,11,23,34,304,22,28,56,092,22,30,18,071,*46
$GPGLL,5129.36573,N,00245.57999,W,205537.00,A,A*7E
$GPRMC,205538.00,A,5129.36582,N,00245.58000,W,1.089,,270821,,,A*6E
$GPVTG,,T,,M,1.089,N,2.018,K,A*28
$GPGGA,205538.00,5129.36582,N,00245.58000,W,1,05,3.09,2.3,M,48.8,M,,*46
$GPGSA,A,3,15,05,23,13,18,,,,,,,,4.48,3.09,3.24*0E
$GPGSV,3,1,11,05,26,192,28,10,09,327,,13,67,114,23,14,47,068,*7A
$GPGSV,3,2,11,15,78,257,26,17,13,101,,18,06,270,13,19,01,125,*74
$GPGSV,3,3,11,23,34,304,20,28,56,092,21,30,18,071,*47
$GPGLL,5129.36582,N,00245.58000,W,205538.00,A,A*79
$GPRMC,205539.00,A,5129.36605,N,00245.58020,W,1.200,,270821,,,A*62
$GPVTG,,T,,M,1.200,N,2.223,K,A*21
$GPGGA,205539.00,5129.36605,N,00245.58020,W,1,05,3.09,1.9,M,48.8,M,,*40
$GPGSA,A,3,15,05,23,13,18,,,,,,,,4.48,3.09,3.24*0E
$GPGSV,3,1,11,05,26,192,28,10,09,327,,13,67,114,22,14,47,068,*7B
$GPGSV,3,2,11,15,78,257,26,17,13,101,,18,06,270,12,19,01,125,*75
$GPGSV,3,3,11,23,34,304,19,28,56,092,21,30,18,071,*4D
$GPGLL,5129.36605,N,00245.58020,W,205539.00,A,A*76
$GPRMC,205540.00,A,5129.36563,N,00245.57968,W,0.680,,270821,,,A*68
$GPVTG,,T,,M,0.680,N,1.260,K,A*28
$GPGGA,205540.00,5129.36563,N,00245.57968,W,1,05,2.93,2.1,M,48.8,M,,*4E
$GPGSA,A,3,15,05,23,13,18,,,,,,,,4.36,2.93,3.23*02
$GPGSV,3,1,11,05,26,192,28,10,09,327,,13,67,114,22,14,47,068,*7B
$GPGSV,3,2,11,15,78,257,26,17,13,101,,18,06,270,13,19,01,125,*74
$GPGSV,3,3,11,23,34,304,19,28,56,092,21,30,18,071,*4D
$GPGLL,5129.36563,N,00245.57968,W,205540.00,A,A*71
$GPRMC,205541.00,A,5129.36524,N,00245.57981,W,0.648,,270821,,,A*69
$GPVTG,,T,,M,0.648,N,1.201,K,A*2B
$GPGGA,205541.00,5129.36524,N,00245.57981,W,1,05,2.93,2.3,M,48.8,M,,*49
$GPGSA,A,3,15,05,23,13,18,,,,,,,,4.36,2.93,3.23*02
$GPGSV,3,1,11,05,26,192,28,10,09,327,,13,67,114,22,14,47,068,*7B
$GPGSV,3,2,11,15,78,257,26,17,13,101,,18,06,270,14,19,01,125,*73
$GPGSV,3,3,11,23,34,304,20,28,56,092,20,30,18,071,*46
$GPGLL,5129.36524,N,00245.57981,W,205541.00,A,A*74
$GPRMC,205542.00,A,5129.36511,N,00245.57987,W,0.729,,270821,,,A*6C
$GPVTG,,T,,M,0.729,N,1.350,K,A*28
$GPGGA,205542.00,5129.36511,N,00245.57987,W,1,05,2.93,2.3,M,48.8,M,,*4A
$GPGSA,A,3,15,05,23,13,18,,,,,,,,4.36,2.93,3.23*02
$GPGSV,3,1,11,05,26,192,28,10,09,327,,13,67,114,22,14,47,068,*7B
$GPGSV,3,2,11,15,78,257,26,17,13,101,,18,06,270,14,19,01,125,*73
$GPGSV,3,3,11,23,34,304,19,28,56,092,21,30,18,071,*4D
$GPGLL,5129.36511,N,00245.57987,W,205542.00,A,A*77
$GPRMC,205543.00,A,5129.36487,N,00245.58027,W,0.953,,270821,,,A*6C
$GPVTG,,T,,M,0.953,N,1.764,K,A*28
$GPGGA,205543.00,5129.36487,N,00245.58027,W,1,05,2.93,2.3,M,48.8,M,,*49
$GPGSA,A,3,15,05,23,13,18,,,,,,,,4.36,2.93,3.23*02
$GPGSV,3,1,11,05,26,192,28,10,09,327,,13,67,114,21,14,47,068,*78
$GPGSV,3,2,11,15,78,257,26,17,13,101,,18,06,270,14,19,01,125,*73
$GPGSV,3,3,11,23,34,304,19,28,56,092,20,30,18,071,*4C
$GPGLL,5129.36487,N,00245.58027,W,205543.00,A,A*74
$GPRMC,205544.00,A,5129.36455,N,00245.58094,W,1.264,,270821,,,A*62
$GPVTG,,T,,M,1.264,N,2.340,K,A*27
$GPGGA,205544.00,5129.36455,N,00245.58094,W,1,05,2.93,2.4,M,48.8,M,,*4E
$GPGSA,A,3,15,05,23,13,18,,,,,,,,4.36,2.93,3.23*02
$GPGSV,3,1,11,05,26,192,28,10,09,327,,13,67,114,21,14,47,068,*78
$GPGSV,3,2,11,15,78,257,26,17,13,101,,18,06,270,16,19,01,125,*71
$GPGSV,3,3,11,23,34,304,19,28,56,092,20,30,18,071,*4C
$GPGLL,5129.36455,N,00245.58094,W,205544.00,A,A*74
!AIVDM,1,1,,A,H3P8C0hDlTiV0lu8L4p00000000,2*76
!AIVDM,1,1,,A,H3P8C0hDlTiV0lu8L4p00000000,2*76
!AIVDM,1,1,,A,H3P8C0lTFC@4:jh=5;6m00188140,0*5B
!AIVDM,1,1,,A,H3P8C0lTFC@4:jh=5;6m00188140,0*5B
$GPRMC,205545.00,A,5129.36430,N,00245.58051,W,0.956,,270821,,,A*62
$GPVTG,,T,,M,0.956,N,1.771,K,A*29
$GPGGA,205545.00,5129.36430,N,00245.58051,W,1,05,2.93,2.5,M,48.8,M,,*44
$GPGSA,A,3,15,05,23,13,18,,,,,,,,4.36,2.93,3.23*02
$GPGSV,3,1,11,05,26,192,28,10,09,327,,13,67,114,21,14,47,068,*78
$GPGSV,3,2,11,15,78,257,26,17,13,101,,18,06,270,16,19,01,125,*71
$GPGSV,3,3,11,23,34,304,19,28,56,092,20,30,18,071,*4C
$GPGLL,5129.36430,N,00245.58051,W,205545.00,A,A*7F
$GPRMC,205546.00,A,5129.36418,N,00245.57973,W,0.590,,270821,,,A*6B
$GPVTG,,T,,M,0.590,N,1.094,K,A*23
$GPGGA,205546.00,5129.36418,N,00245.57973,W,1,05,2.93,2.5,M,48.8,M,,*4B
$GPGSA,A,3,15,05,23,13,18,,,,,,,,4.36,2.93,3.23*02
$GPGSV,3,1,11,05,26,192,29,10,09,327,,13,67,114,22,14,47,068,*7A
$GPGSV,3,2,11,15,78,257,26,17,13,101,,18,06,270,15,19,01,125,*72
$GPGSV,3,3,11,23,34,304,18,28,56,092,20,30,18,071,*4D
$GPGLL,5129.36418,N,00245.57973,W,205546.00,A,A*70
$GPRMC,205547.00,A,5129.36417,N,00245.57896,W,0.203,,270821,,,A*62
$GPVTG,,T,,M,0.203,N,0.376,K,A*20
$GPGGA,205547.00,5129.36417,N,00245.57896,W,1,05,2.93,2.5,M,48.8,M,,*4F
$GPGSA,A,3,15,05,23,13,18,,,,,,,,4.36,2.93,3.22*03
$GPGSV,3,1,11,05,26,192,28,10,09,327,,13,67,114,21,14,47,068,*78
$GPGSV,3,2,11,15,78,257,26,17,13,101,,18,06,270,13,19,01,125,*74
$GPGSV,3,3,11,23,34,304,19,28,56,092,20,30,18,071,*4C
$GPGLL,5129.36417,N,00245.57896,W,205547.00,A,A*74
$GPRMC,205548.00,A,5129.36404,N,00245.57880,W,0.187,,270821,,,A*67
$GPVTG,,T,,M,0.187,N,0.347,K,A*2D
$GPGGA,205548.00,5129.36404,N,00245.57880,W,1,05,2.93,2.6,M,48.8,M,,*46
$GPGSA,A,3,15,05,23,13,18,,,,,,,,4.36,2.93,3.22*03
$GPGSV,3,1,11,05,26,192,29,10,09,327,,13,67,114,22,14,47,068,*7A
$GPGSV,3,2,11,15,78,257,27,17,13,101,,18,06,270,10,19,01,125,*76
$GPGSV,3,3,11,23,34,304,19,28,56,092,20,30,18,071,*4C
$GPGLL,5129.36404,N,00245.57880,W,205548.00,A,A*7E
$GPRMC,205549.00,A,5129.36399,N,00245.57877,W,0.198,,270821,,,A*63
$GPVTG,,T,,M,0.198,N,0.366,K,A*20
$GPGGA,205549.00,5129.36399,N,00245.57877,W,1,05,2.93,2.6,M,48.8,M,,*4C
$GPGSA,A,3,15,05,23,13,18,,,,,,,,4.36,2.93,3.22*03
$GPGSV,3,1,11,05,26,192,29,10,09,327,,13,67,114,22,14,47,068,*7A
$GPGSV,3,2,11,15,78,257,27,17,13,101,,18,06,270,10,19,01,125,*76
$GPGSV,3,3,11,23,34,304,19,28,56,092,20,30,18,071,*4C
$GPGLL,5129.36399,N,00245.57877,W,205549.00,A,A*74
$GPRMC,205550.00,A,5129.36365,N,00245.57842,W,0.441,,270821,,,A*6F
$GPVTG,,T,,M,0.441,N,0.817,K,A*2C
$GPGGA,205550.00,5129.36365,N,00245.57842,W,1,04,2.96,2.8,M,48.8,M,,*4B
$GPGSA,A,3,15,05,23,13,,,,,,,,,4.74,2.96,3.70*0E
$GPGSV,3,1,11,05,26,192,29,10,09,327,,13,67,114,22,14,47,068,*7A
$GPGSV,3,2,11,15,78,257,27,17,13,101,,18,06,270,09,19,01,125,*7E
$GPGSV,3,3,11,23,34,304,18,28,56,092,20,30,18,071,*4D
$GPGLL,5129.36365,N,00245.57842,W,205550.00,A,A*79
$GPRMC,205551.00,A,5129.36357,N,00245.57786,W,0.308,,270821,,,A*62
$GPVTG,,T,,M,0.308,N,0.570,K,A*2A
$GPGGA,205551.00,5129.36357,N,00245.57786,W,1,05,2.93,2.7,M,48.8,M,,*47
$GPGSA,A,3,15,05,23,13,18,,,,,,,,4.36,2.93,3.22*03
$GPGSV,3,1,11,05,26,192,29,10,09,327,,13,67,114,23,14,47,068,*7B
$GPGSV,3,2,11,15,78,257,27,17,13,101,,18,06,270,13,19,01,125,*75
$GPGSV,3,3,11,23,34,304,17,28,56,092,20,30,18,071,*42
$GPGLL,5129.36357,N,00245.57786,W,205551.00,A,A*7E
$GPRMC,205552.00,A,5129.36350,N,00245.57797,W,0.075,,270821,,,A*6F
$GPVTG,,T,,M,0.075,N,0.140,K,A*24
$GPGGA,205552.00,5129.36350,N,00245.57797,W,1,05,2.93,2.6,M,48.8,M,,*42
$GPGSA,A,3,15,05,23,13,18,,,,,,,,4.36,2.93,3.22*03
$GPGSV,3,1,11,05,26,192,30,10,09,327,,13,67,114,23,14,47,068,*73
$GPGSV,3,2,11,15,78,257,27,17,13,101,,18,06,270,16,19,01,125,*70
$GPGSV,3,3,11,23,34,304,17,28,56,092,19,30,18,071,*48
$GPGLL,5129.36350,N,00245.57797,W,205552.00,A,A*7A
$GPRMC,205553.00,A,5129.36323,N,00245.57772,W,0.168,,270821,,,A*6C
$GPVTG,,T,,M,0.168,N,0.312,K,A*2C
$GPGGA,205553.00,5129.36323,N,00245.57772,W,1,05,2.93,3.0,M,48.8,M,,*4B
$GPGSA,A,3,15,05,23,13,18,,,,,,,,4.36,2.93,3.22*03
$GPGSV,3,1,11,05,26,192,30,10,09,327,,13,67,114,23,14,47,068,*73
$GPGSV,3,2,11,15,78,257,27,17,13,101,,18,06,270,17,19,01,125,*71
$GPGSV,3,3,11,23,34,304,18,28,56,092,19,30,18,071,*47
$GPGLL,5129.36323,N,00245.57772,W,205553.00,A,A*74
$GPRMC,205554.00,A,5129.36305,N,00245.57742,W,0.186,,270821,,,A*6C
$GPVTG,,T,,M,0.186,N,0.344,K,A*2F
$GPGGA,205554.00,5129.36305,N,00245.57742,W,1,05,2.93,3.2,M,48.8,M,,*49
$GPGSA,A,3,15,05,23,13,18,,,,,,,,4.36,2.93,3.22*03
$GPGSV,3,1,11,05,26,192,29,10,09,327,,13,67,114,23,14,47,068,*7B
$GPGSV,3,2,11,15,78,257,27,17,13,101,,18,06,270,18,19,01,125,*7E
$GPGSV,3,3,11,23,34,304,19,28,56,092,18,30,18,071,*47
$GPGLL,5129.36305,N,00245.57742,W,205554.00,A,A*74
$GPRMC,205555.00,A,5129.36276,N,00245.57716,W,0.293,,270821,,,A*6E
$GPVTG,,T,,M,0.293,N,0.542,K,A*28
$GPGGA,205555.00,5129.36276,N,00245.57716,W,1,05,2.93,3.6,M,48.8,M,,*48
$GPGSA,A,3,15,05,23,13,18,,,,,,,,4.36,2.93,3.22*03
$GPGSV,3,1,11,05,26,192,29,10,09,327,,13,67,114,23,14,47,068,*7B
$GPGSV,3,2,11,15,78,257,27,17,13,101,,18,06,270,18,19,01,125,*7E
$GPGSV,3,3,11,23,34,304,20,28,56,092,19,30,18,071,*4C
$GPGLL,5129.36276,N,00245.57716,W,205555.00,A,A*71
$GPRMC,205556.00,A,5129.36272,N,00245.57661,W,0.240,,270821,,,A*66
$GPVTG,,T,,M,0.240,N,0.444,K,A*21
$GPGGA,205556.00,5129.36272,N,00245.57661,W,1,05,2.93,3.7,M,48.8,M,,*4F
$GPGSA,A,3,15,05,23,13,18,,,,,,,,4.36,2.93,3.22*03
$GPGSV,3,1,11,05,26,192,29,10,09,327,,13,67,114,23,14,47,068,*7B
$GPGSV,3,2,11,15,78,257,26,17,13,101,,18,06,270,18,19,01,125,*7F
$GPGSV,3,3,11,23,34,304,18,28,56,092,19,30,18,071,*47
$GPGLL,5129.36272,N,00245.57661,W,205556.00,A,A*77
$GPRMC,205557.00,A,5129.36251,N,00245.57623,W,0.462,,270821,,,A*66
$GPVTG,,T,,M,0.462,N,0.855,K,A*2B
$GPGGA,205557.00,5129.36251,N,00245.57623,W,1,05,2.93,4.0,M,48.8,M,,*49
$GPGSA,A,3,15,05,23,13,18,,,,,,,,4.36,2.93,3.22*03
$GPGSV,3,1,11,05,26,192,29,10,09,327,,13,67,114,25,14,47,068,*7D
$GPGSV,3,2,11,15,78,257,26,17,13,101,,18,06,270,16,19,01,125,*71
$GPGSV,3,3,11,23,34,304,16,28,56,092,20,30,18,071,*43
$GPGLL,5129.36251,N,00245.57623,W,205557.00,A,A*71
$GPRMC,205558.00,A,5129.36265,N,00245.57533,W,0.796,,270821,,,A*64
$GPVTG,,T,,M,0.796,N,1.474,K,A*2D
$GPGGA,205558.00,5129.36265,N,00245.57533,W,1,05,2.93,4.1,M,48.8,M,,*42
$GPGSA,A,3,15,05,23,13,18,,,,,,,,4.36,2.93,3.22*03
$GPGSV,3,1,11,05,26,192,29,10,09,327,,13,67,114,25,14,47,068,*7D
$GPGSV,3,2,11,15,78,257,26,17,13,101,,18,06,270,16,19,01,125,*71
$GPGSV,3,3,11,23,34,304,16,28,56,092,19,30,18,071,*49
$GPGLL,5129.36265,N,00245.57533,W,205558.00,A,A*7B
$GPRMC,205559.00,A,5129.36265,N,00245.57470,W,0.927,,270821,,,A*67
!AIVDM,1,1,,A,H3P;NCPiDp5:1<D622222222220,2*74
!AIVDM,1,1,,A,H3P;NCPiDp5:1<D622222222220,2*74
$GPVTG,,T,,M,0.927,N,1.718,K,A*20
!AIVDM,1,1,,A,H3P;NCTT93?4=hA=BEDkPP1H1220,0*43
!AIVDM,1,1,,A,H3P;NCTT93?4=hA=BEDkPP1H1220,0*43
$GPGGA,205559.00,5129.36265,N,00245.57470,W,1,05,2.93,4.3,M,48.8,M,,*47
$GPGSA,A,3,15,05,23,13,18,,,,,,,,4.35,2.93,3.22*00
$GPGSV,3,1,11,05,26,192,29,10,09,327,,13,67,114,25,14,47,068,*7D
$GPGSV,3,2,11,15,78,257,26,17,13,101,,18,06,270,16,19,01,125,*71
$GPGSV,3,3,11,23,34,304,18,28,56,092,19,30,18,071,*47
$GPGLL,5129.36265,N,00245.57470,W,205559.00,A,A*7C
$GPRMC,205600.00,A,5129.36249,N,00245.57440,W,0.885,,270821,,,A*6C
$GPVTG,,T,,M,0.885,N,1.638,K,A*2A
$GPGGA,205600.00,5129.36249,N,00245.57440,W,1,05,2.93,4.7,M,48.8,M,,*41
$GPGSA,A,3,15,05,23,13,18,,,,,,,,4.35,2.93,3.22*00
$GPGSV,3,1,11,05,26,192,29,10,09,327,,13,67,114,25,14,47,068,*7D
$GPGSV,3,2,11,15,78,257,26,17,13,101,,18,06,270,18,19,01,125,*7F
$GPGSV,3,3,11,23,34,304,19,28,56,092,19,30,18,071,*46
$GPGLL,5129.36249,N,00245.57440,W,205600.00,A,A*7E
$GPRMC,205601.00,A,5129.36259,N,00245.57535,W,0.342,,270821,,,A*6F
$GPVTG,,T,,M,0.342,N,0.634,K,A*27
$GPGGA,205601.00,5129.36259,N,00245.57535,W,1,05,2.93,4.8,M,48.8,M,,*4D
$GPGSA,A,3,15,05,23,13,18,,,,,,,,4.35,2.93,3.22*00
$GPGSV,3,1,11,05,26,192,28,10,09,327,,13,67,114,25,14,47,068,*7C
$GPGSV,3,2,11,15,78,257,25,17,13,101,,18,06,270,18,19,01,125,*7C
$GPGSV,3,3,11,23,34,304,19,28,56,092,18,30,18,071,*47
$GPGLL,5129.36259,N,00245.57535,W,205601.00,A,A*7D
$GPRMC,205602.00,A,5129.36259,N,00245.57554,W,0.434,,270821,,,A*6D
$GPVTG,,T,,M,0.434,N,0.804,K,A*2C
$GPGGA,205602.00,5129.36259,N,00245.57554,W,1,05,2.93,4.8,M,48.8,M,,*49
$GPGSA,A,3,15,05,23,13,18,,,,,,,,4.35,2.93,3.22*00
$GPGSV,3,1,11,05,26,192,28,10,09,327,,13,67,114,25,14,47,068,*7C
$GPGSV,3,2,11,15,78,257,25,17,13,101,,18,06,270,18,19,01,125,*7C
$GPGSV,3,3,11,23,34,304,19,28,56,092,18,30,18,071,*47
$GPGLL,5129.36259,N,00245.57554,W,205602.00,A,A*79
$GPRMC,205603.00,A,5129.36267,N,00245.57553,W,0.537,,270821,,,A*64
$GPVTG,,T,,M,0.537,N,0.994,K,A*26
$GPGGA,205603.00,5129.36267,N,00245.57553,W,1,05,2.93,5.0,M,48.8,M,,*4B
$GPGSA,A,3,15,05,23,13,18,,,,,,,,4.35,2.93,3.22*00
$GPGSV,3,1,11,05,26,192,28,10,09,327,,13,67,114,25,14,47,068,*7C
$GPGSV,3,2,11,15,78,257,26,17,13,101,,18,06,270,16,19,01,125,*71
$GPGSV,3,3,11,23,34,304,18,28,56,092,19,30,18,071,*47
$GPGLL,5129.36267,N,00245.57553,W,205603.00,A,A*72
$GPRMC,205604.00,A,5129.36255,N,00245.57564,W,0.314,,270821,,,A*61
$GPVTG,,T,,M,0.314,N,0.581,K,A*29
$GPGGA,205604.00,5129.36255,N,00245.57564,W,1,05,2.93,5.1,M,48.8,M,,*48
$GPGSA,A,3,15,05,23,13,18,,,,,,,,4.35,2.93,3.22*00
$GPGSV,3,1,11,05,26,192,28,10,09,327,,13,67,114,25,14,47,068,*7C
$GPGSV,3,2,11,15,78,257,26,17,13,101,,18,06,270,16,19,01,125,*71
$GPGSV,3,3,11,23,34,304,18,28,56,092,19,30,18,071,*47
$GPGLL,5129.36255,N,00245.57564,W,205604.00,A,A*70
$GPRMC,205605.00,A,5129.36252,N,00245.57545,W,0.336,,270821,,,A*64
$GPVTG,,T,,M,0.336,N,0.622,K,A*23
$GPGGA,205605.00,5129.36252,N,00245.57545,W,1,05,2.93,5.3,M,48.8,M,,*4F
$GPGSA,A,3,15,05,23,13,18,,,,,,,,4.35,2.93,3.22*00
$GPGSV,3,1,11,05,26,192,28,10,09,327,,13,67,114,25,14,47,068,*7C
$GPGSV,3,2,11,15,78,257,26,17,13,101,,18,06,270,16,19,01,125,*71
$GPGSV,3,3,11,23,34,304,18,28,56,092,18,30,18,071,*46
$GPGLL,5129.36252,N,00245.57545,W,205605.00,A,A*75
$GPRMC,205606.00,A,5129.36270,N,00245.57605,W,0.765,,270821,,,A*62
$GPVTG,,T,,M,0.765,N,1.416,K,A*25
$GPGGA,205606.00,5129.36270,N,00245.57605,W,1,05,2.93,5.1,M,48.8,M,,*49
$GPGSA,A,3,15,05,23,13,18,,,,,,,,4.35,2.93,3.22*00
$GPGSV,3,1,11,05,26,192,29,10,09,327,,13,67,114,25,14,47,068,*7D
$GPGSV,3,2,11,15,78,257,26,17,13,101,,18,06,270,16,19,01,125,*71
$GPGSV,3,3,11,23,34,304,17,28,56,092,19,30,18,071,*48
$GPGLL,5129.36270,N,00245.57605,W,205606.00,A,A*71
$GPRMC,205607.00,A,5129.36271,N,00245.57627,W,0.752,,270821,,,A*66
$GPVTG,,T,,M,0.752,N,1.393,K,A*2B
$GPGGA,205607.00,5129.36271,N,00245.57627,W,1,05,2.93,5.1,M,48.8,M,,*49
$GPGSA,A,3,15,05,23,13,18,,,,,,,,4.35,2.93,3.22*00
$GPGSV,3,1,11,05,26,192,28,10,09,327,,13,67,114,24,14,47,068,*7D
$GPGSV,3,2,11,15,78,257,26,17,13,101,,18,06,270,17,19,01,125,*70
$GPGSV,3,3,11,23,34,304,18,28,56,092,18,30,18,071,*46
$GPGLL,5129.36271,N,00245.57627,W,205607.00,A,A*71
$GPRMC,205608.00,A,5129.36264,N,00245.57624,W,0.441,,270821,,,A*6F
$GPVTG,,T,,M,0.441,N,0.816,K,A*2D
$GPGGA,205608.00,5129.36264,N,00245.57624,W,1,05,2.93,5.4,M,48.8,M,,*44
$GPGSA,A,3,15,05,23,13,18,,,,,,,,4.35,2.93,3.22*00
$GPGSV,3,1,11,05,26,192,28,10,09,327,,13,67,114,25,14,47,068,*7C
$GPGSV,3,2,11,15,78,257,26,17,13,101,,18,06,270,16,19,01,125,*71
$GPGSV,3,3,11,23,34,304,18,28,56,092,19,30,18,071,*47
$GPGLL,5129.36264,N,00245.57624,W,205608.00,A,A*79
$GPRMC,205609.00,A,5129.36270,N,00245.57669,W,0.657,,270821,,,A*67
$GPVTG,,T,,M,0.657,N,1.216,K,A*23
!AIVDM,1,1,,A,H3MAn@TTFC@<9?u=GJ=o00108230,0*1F
!AIVDM,1,1,,A,H3MAn@TTFC@<9?u=GJ=o00108230,0*1F
$GPGGA,205609.00,5129.36270,N,00245.57669,W,1,05,2.93,5.5,M,48.8,M,,*48
$GPGSA,A,3,15,05,23,13,18,,,,,,,,4.35,2.93,3.22*00
$GPGSV,3,1,11,05,26,192,28,10,09,327,,13,67,114,24,14,47,068,*7D
$GPGSV,3,2,11,15,78,257,26,17,13,101,,18,06,270,16,19,01,125,*71
$GPGSV,3,3,11,23,34,304,18,28,56,092,20,30,18,071,*4D
$GPGLL,5129.36270,N,00245.57669,W,205609.00,A,A*74
$GPRMC,205610.00,A,5129.36270,N,00245.57683,W,0.586,,270821,,,A*64
$GPVTG,,T,,M,0.586,N,1.085,K,A*24
$GPGGA,205610.00,5129.36270,N,00245.57683,W,1,05,2.93,5.7,M,48.8,M,,*46
$GPGSA,A,3,15,05,23,13,18,,,,,,,,4.35,2.93,3.22*00
$GPGSV,3,1,11,05,26,192,29,10,09,327,,13,67,114,25,14,47,068,*7D
$GPGSV,3,2,11,15,78,257,26,17,13,101,,18,06,270,16,19,01,125,*71
$GPGSV,3,3,11,23,34,304,18,28,56,092,20,30,18,071,*4D
$GPGLL,5129.36270,N,00245.57683,W,205610.00,A,A*78
$GPRMC,205611.00,A,5129.36258,N,00245.57698,W,0.490,,270821,,,A*63
$GPVTG,,T,,M,0.490,N,0.907,K,A*20
$GPGGA,205611.00,5129.36258,N,00245.57698,W,1,05,2.93,5.9,M,48.8,M,,*49
$GPGSA,A,3,15,05,23,13,18,,,,,,,,4.35,2.93,3.22*00
$GPGSV,3,1,11,05,26,192,29,10,09,327,,13,67,114,25,14,47,068,*7D
$GPGSV,3,2,11,15,78,257,27,17,13,101,,18,06,270,17,19,01,125,*71
$GPGSV,3,3,11,23,34,304,18,28,56,092,19,30,18,071,*47
$GPGLL,5129.36258,N,00245.57698,W,205611.00,A,A*79
$GPRMC,205612.00,A,5129.36267,N,00245.57708,W,0.562,,270821,,,A*68
$GPVTG,,T,,M,0.562,N,1.041,K,A*26
$GPGGA,205612.00,5129.36267,N,00245.57708,W,1,05,2.93,6.1,M,48.8,M,,*45
$GPGSA,A,3,15,05,23,13,18,,,,,,,,4.35,2.93,3.22*00
$GPGSV,3,1,11,05,26,192,29,10,09,327,,13,67,114,25,14,47,068,*7D
$GPGSV,3,2,11,15,78,257,27,17,13,101,,18,06,270,18,19,01,125,*7E
$GPGSV,3,3,11,23,34,304,17,28,56,092,19,30,18,071,*48
$GPGLL,5129.36267,N,00245.57708,W,205612.00,A,A*7E
$GPRMC,205613.00,A,5129.36259,N,00245.57690,W,0.310,,270821,,,A*67
$GPVTG,,T,,M,0.310,N,0.573,K,A*20
$GPGGA,205613.00,5129.36259,N,00245.57690,W,1,05,2.93,6.4,M,48.8,M,,*4C
$GPGSA,A,3,15,05,23,13,18,,,,,,,,4.35,2.93,3.22*00
$GPGSV,3,1,11,05,26,192,29,10,09,327,,13,67,114,24,14,47,068,*7C
$GPGSV,3,2,11,15,78,257,27,17,13,101,,18,06,270,20,19,01,125,*75
$GPGSV,3,3,11,23,34,304,18,28,56,092,19,30,18,071,*47
$GPGLL,5129.36259,N,00245.57690,W,205613.00,A,A*72
$GPRMC,205614.00,A,5129.36257,N,00245.57715,W,0.570,,270821,,,A*62
$GPVTG,,T,,M,0.570,N,1.056,K,A*23
$GPGGA,205614.00,5129.36257,N,00245.57715,W,1,05,2.93,6.6,M,48.8,M,,*4B
$GPGSA,A,3,15,05,23,13,18,,,,,,,,4.35,2.93,3.22*00
$GPGSV,3,1,11,05,25,192,29,10,09,327,,13,67,114,24,14,47,068,*7F
$GPGSV,3,2,11,15,78,257,27,17,13,101,,18,06,270,20,19,01,125,*75
$GPGSV,3,3,11,23,34,304,16,28,56,092,19,30,18,071,*49
$GPGLL,5129.36257,N,00245.57715,W,205614.00,A,A*77
$GPRMC,205615.00,A,5129.36228,N,00245.57688,W,0.058,,270821,,,A*61
$GPVTG,,T,,M,0.058,N,0.107,K,A*28
$GPGGA,205615.00,5129.36228,N,00245.57688,W,1,05,2.93,7.2,M,48.8,M,,*42
$GPGSA,A,3,15,05,23,13,18,,,,,,,,4.35,2.93,3.21*03
$GPGSV,3,1,11,05,25,192,30,10,09,327,,13,67,114,25,14,47,068,*76
$GPGSV,3,2,11,15,78,257,27,17,13,101,,18,06,270,21,19,01,125,*74
$GPGSV,3,3,11,23,34,304,12,28,56,092,18,30,18,071,*4C
$GPGLL,5129.36228,N,00245.57688,W,205615.00,A,A*7B
$GPRMC,205616.00,A,5129.36211,N,00245.57663,W,0.262,,270821,,,A*66
$GPVTG,,T,,M,0.262,N,0.485,K,A*2C
$GPGGA,205616.00,5129.36211,N,00245.57663,W,1,05,2.93,7.6,M,48.8,M,,*4A
$GPGSA,A,3,15,05,23,13,18,,,,,,,,4.35,2.93,3.21*03
$GPGSV,3,1,11,05,25,192,30,10,09,327,,13,67,114,25,14,47,068,*76
$GPGSV,3,2,11,15,78,257,27,17,13,101,,18,06,270,20,19,01,125,*75
$GPGSV,3,3,11,23,34,304,13,28,56,092,18,30,18,071,*4D
$GPGLL,5129.36211,N,00245.57663,W,205616.00,A,A*77
$GPRMC,205617.00,A,5129.36182,N,00245.57635,W,0.538,,270821,,,A*65
$GPVTG,,T,,M,0.538,N,0.997,K,A*2A
$GPGGA,205617.00,5129.36182,N,00245.57635,W,1,05,2.93,8.1,M,48.8,M,,*49
$GPGSA,A,3,15,05,23,13,18,,,,,,,,4.35,2.93,3.21*03
$GPGSV,3,1,11,05,25,192,30,10,09,327,,13,67,114,25,14,47,068,*76
$GPGSV,3,2,11,15,78,257,27,17,13,101,,18,06,270,20,19,01,125,*75
$GPGSV,3,3,11,23,34,304,12,28,56,092,18,30,18,071,*4C
$GPGLL,5129.36182,N,00245.57635,W,205617.00,A,A*7C
$GPRMC,205618.00,A,5129.36184,N,00245.57632,W,0.229,,270821,,,A*6C
$GPVTG,,T,,M,0.229,N,0.423,K,A*2F
$GPGGA,205618.00,5129.36184,N,00245.57632,W,1,05,2.93,8.2,M,48.8,M,,*44
$GPGSA,A,3,15,05,23,13,18,,,,,,,,4.35,2.93,3.21*03
$GPGSV,3,1,11,05,25,192,30,10,09,327,,13,67,114,24,14,47,068,*77
$GPGSV,3,2,11,15,78,257,27,17,13,101,,18,06,270,18,19,01,125,*7E
$GPGSV,3,3,11,23,34,304,14,28,56,092,17,30,18,071,*45
$GPGLL,5129.36184,N,00245.57632,W,205618.00,A,A*72
$GPRMC,205619.00,A,5129.36222,N,00245.57677,W,0.661,,270821,,,A*6B
$GPVTG,,T,,M,0.661,N,1.224,K,A*27
$GPGGA,205619.00,5129.36222,N,00245.57677,W,1,05,2.93,8.0,M,48.8,M,,*49
$GPGSA,A,3,15,05,23,13,18,,,,,,,,4.35,2.93,3.21*03
$GPGSV,3,1,11,05,25,192,30,10,10,327,,13,67,114,24,14,47,068,*7F
$GPGSV,3,2,11,15,78,257,27,17,13,101,,18,06,270,17,19,01,125,*71
$GPGSV,3,3,11,23,34,304,14,28,56,092,16,30,18,071,*44
$GPGLL,5129.36222,N,00245.57677,W,205619.00,A,A*7D
$GPRMC,205620.00,A,5129.36215,N,00245.57660,W,0.257,,270821,,,A*62
$GPVTG,,T,,M,0.257,N,0.475,K,A*25
$GPGGA,205620.00,5129.36215,N,00245.57660,W,1,05,2.93,8.2,M,48.8,M,,*43
$GPGSA,A,3,15,05,23,13,18,,,,,,,,4.35,2.93,3.21*03
$GPGSV,3,1,11,05,25,192,30,10,10,327,,13,67,114,25,14,47,068,*7E
$GPGSV,3,2,11,15,78,257,26,17,13,101,,18,06,270,16,19,01,125,*71
$GPGSV,3,3,11,23,34,304,17,28,56,092,15,30,18,071,*44
$GPGLL,5129.36215,N,00245.57660,W,205620.00,A,A*75
$GPRMC,205621.00,A,5129.36205,N,00245.57649,W,0.121,,270821,,,A*6B
$GPVTG,,T,,M,0.121,N,0.224,K,A*25
$GPGGA,205621.00,5129.36205,N,00245.57649,W,1,05,2.93,8.5,M,48.8,M,,*4F
$GPGSA,A,3,15,05,23,13,18,,,,,,,,4.35,2.93,3.21*03
$GPGSV,3,1,11,05,25,192,30,10,10,327,,13,67,114,25,14,47,068,*7E
$GPGSV,3,2,11,15,78,257,26,17,13,101,,18,06,270,16,19,01,125,*71
$GPGSV,3,3,11,23,34,304,18,28,56,092,17,30,18,071,*49
$GPGLL,5129.36205,N,00245.57649,W,205621.00,A,A*7E
$GPRMC,205622.00,A,5129.36173,N,00245.57605,W,0.724,,270821,,,A*61
$GPVTG,,T,,M,0.724,N,1.341,K,A*25
$GPGGA,205622.00,5129.36173,N,00245.57605,W,1,05,2.93,9.0,M,48.8,M,,*42
$GPGSA,A,3,15,05,23,13,18,,,,,,,,4.35,2.93,3.21*03
$GPGSV,3,1,11,05,25,192,30,10,10,327,,13,66,114,25,14,47,068,*7F
$GPGSV,3,2,11,15,78,257,27,17,13,101,,18,06,270,14,19,01,125,*72
$GPGSV,3,3,11,23,34,304,18,28,56,092,17,30,18,071,*49
$GPGLL,5129.36173,N,00245.57605,W,205622.00,A,A*77
$GPRMC,205623.00,A,5129.36161,N,00245.57622,W,0.529,,270821,,,A*69
$GPVTG,,T,,M,0.529,N,0.980,K,A*2C
$GPGGA,205623.00,5129.36161,N,00245.57622,W,1,05,2.93,9.4,M,48.8,M,,*41
$GPGSA,A,3,15,05,23,13,18,,,,,,,,4.35,2.93,3.21*03
$GPGSV,3,1,11,05,25,192,30,10,10,327,,13,66,114,25,14,47,068,*7F
$GPGSV,3,2,11,15,78,257,27,17,13,101,,18,06,270,11,19,01,125,*77
$GPGSV,3,3,11,23,34,304,17,28,56,092,17,30,18,071,*46
$GPGLL,5129.36161,N,00245.57622,W,205623.00,A,A*70
$GPRMC,205624.00,A,5129.36144,N,00245.57619,W,0.527,,270821,,,A*6F
$GPVTG,,T,,M,0.527,N,0.975,K,A*28
$GPGGA,205624.00,5129.36144,N,00245.57619,W,1,05,2.93,9.8,M,48.8,M,,*45
$GPGSA,A,3,15,05,23,13,18,,,,,,,,4.35,2.93,3.21*03
$GPGSV,3,1,11,05,25,192,30,10,10,327,,13,66,114,24,14,47,068,*7E
$GPGSV,3,2,11,15,79,254,27,17,13,101,,18,06,270,14,19,01,125,*70
$GPGSV,3,3,11,23,34,304,17,28,56,092,16,30,18,071,*47
$GPGLL,5129.36144,N,00245.57619,W,205624.00,A,A*78
$GPRMC,205625.00,A,5129.36116,N,00245.57591,W,0.739,,270821,,,A*67
$GPVTG,,T,,M,0.739,N,1.369,K,A*23
$GPGGA,205625.00,5129.36116,N,00245.57591,W,1,05,2.93,10.2,M,48.8,M,,*72
$GPGSA,A,3,15,05,23,13,18,,,,,,,,4.35,2.93,3.21*03
$GPGSV,3,1,11,05,25,192,30,10,10,327,,13,66,114,24,14,47,068,*7E
$GPGSV,3,2,11,15,79,254,27,17,13,101,,18,06,270,16,19,01,125,*72
$GPGSV,3,3,11,23,34,304,16,28,56,092,16,30,18,071,*46
$GPGLL,5129.36116,N,00245.57591,W,205625.00,A,A*7D
$GPRMC,205626.00,A,5129.36092,N,00245.57561,W,0.814,,270821,,,A*66
$GPVTG,,T,,M,0.814,N,1.507,K,A*2D
$GPGGA,205626.00,5129.36092,N,00245.57561,W,1,05,2.93,10.6,M,48.8,M,,*77
$GPGSA,A,3,15,05,23,13,18,,,,,,,,4.35,2.93,3.21*03
$GPGSV,3,1,11,05,25,192,29,10,10,327,,13,66,114,24,14,47,068,*76
$GPGSV,3,2,11,15,79,254,26,17,13,100,,18,06,270,17,19,01,125,*73
$GPGSV,3,3,11,23,34,304,16,28,56,092,15,30,18,071,*45
$GPGLL,5129.36092,N,00245.57561,W,205626.00,A,A*7C
$GPRMC,205627.00,A,5129.36083,N,00245.57570,W,0.483,,270821,,,A*65
$GPVTG,,T,,M,0.483,N,0.895,K,A*28
$GPGGA,205627.00,5129.36083,N,00245.57570,W,1,05,2.93,10.9,M,48.8,M,,*79
$GPGSA,A,3,15,05,23,13,18,,,,,,,,4.35,2.93,3.21*03
$GPGSV,3,1,11,05,25,192,29,10,10,327,,13,66,114,25,14,47,068,*77
$GPGSV,3,2,11,15,79,254,27,17,13,100,,18,06,270,16,19,01,125,*73
$GPGSV,3,3,11,23,34,304,18,28,56,092,14,30,18,071,*4A
$GPGLL,5129.36083,N,00245.57570,W,205627.00,A,A*7D
$GPRMC,205628.00,A,5129.36071,N,00245.57566,W,0.366,,270821,,,A*6C
$GPVTG,,T,,M,0.366,N,0.678,K,A*29
$GPGGA,205628.00,5129.36071,N,00245.57566,W,1,05,2.93,11.1,M,48.8,M,,*75
$GPGSA,A,3,15,05,23,13,18,,,,,,,,4.35,2.93,3.21*03
$GPGSV,3,1,11,05,25,192,29,10,10,327,,13,66,114,24,14,47,068,*76
$GPGSV,3,2,11,15,79,254,27,17,13,100,,18,06,270,16,19,02,124,*71
$GPGSV,3,3,11,23,34,304,19,28,56,092,13,30,18,071,*4C
$GPGLL,5129.36071,N,00245.57566,W,205628.00,A,A*78
$GPRMC,205629.00,A,5129.36039,N,00245.57523,W,0.708,,270821,,,A*6C
$GPVTG,,T,,M,0.708,N,1.311,K,A*2E
$GPGGA,205629.00,5129.36039,N,00245.57523,W,1,05,2.93,11.5,M,48.8,M,,*7D
$GPGSA,A,3,15,05,23,13,18,,,,,,,,4.34,2.93,3.21*02
$GPGSV,3,1,11,05,25,192,29,10,10,327,,13,66,114,24,14,47,068,*76
$GPGSV,3,2,11,15,79,254,27,17,13,100,,18,06,270,16,19,02,124,*71
$GPGSV,3,3,11,23,34,304,18,28,56,092,13,30,18,071,*4D
$GPGLL,5129.36039,N,00245.57523,W,205629.00,A,A*74
$GPRMC,205630.00,A,5129.36007,N,00245.57477,W,0.981,,270821,,,A*66
$GPVTG,,T,,M,0.981,N,1.816,K,A*2D
$GPGGA,205630.00,5129.36007,N,00245.57477,W,1,05,2.93,11.9,M,48.8,M,,*74
$GPGSA,A,3,15,05,23,13,18,,,,,,,,4.34,2.93,3.21*02
$GPGSV,3,1,11,05,25,192,29,10,10,327,,13,66,114,24,14,47,068,*76
$GPGSV,3,2,11,15,79,254,27,17,13,100,,18,06,270,16,19,02,124,*71
$GPGSV,3,3,11,23,34,304,18,28,56,092,11,30,18,071,*4F
$GPGLL,5129.36007,N,00245.57477,W,205630.00,A,A*71
$GPRMC,205631.00,A,5129.35982,N,00245.57450,W,0.990,,270821,,,A*65
$GPVTG,,T,,M,0.990,N,1.833,K,A*2A
$GPGGA,205631.00,5129.35982,N,00245.57450,W,1,05,2.93,12.3,M,48.8,M,,*7E
$GPGSA,A,3,15,05,23,13,18,,,,,,,,4.34,2.93,3.21*02
$GPGSV,3,1,11,05,25,192,29,10,10,327,,13,66,114,24,14,47,068,*76
$GPGSV,3,2,11,15,79,254,27,17,13,100,,18,06,270,14,19,02,124,*73
$GPGSV,3,3,11,23,34,304,19,28,56,092,13,30,18,071,*4C
$GPGLL,5129.35982,N,00245.57450,W,205631.00,A,A*72
$GPRMC,205632.00,A,5129.35962,N,00245.57401,W,1.060,,270821,,,A*6B
$GPVTG,,T,,M,1.060,N,1.963,K,A*29
$GPGGA,205632.00,5129.35962,N,00245.57401,W,1,05,2.93,12.6,M,48.8,M,,*72
$GPGSA,A,3,15,05,23,13,18,,,,,,,,4.34,2.93,3.21*02
$GPGSV,3,1,11,05,25,192,29,10,10,327,,13,66,114,24,14,47,068,*76
$GPGSV,3,2,11,15,79,254,26,17,13,100,,18,06,270,13,19,02,124,*75
$GPGSV,3,3,11,23,34,303,19,28,56,092,14,30,18,071,*4C
$GPGLL,5129.35962,N,00245.57401,W,205632.00,A,A*7B
$GPRMC,205633.00,A,5129.35964,N,00245.57403,W,0.595,,270821,,,A*60
$GPVTG,,T,,M,0.595,N,1.102,K,A*28
$GPGGA,205633.00,5129.35964,N,00245.57403,W,1,05,2.93,12.7,M,48.8,M,,*76
$GPGSA,A,3,15,05,23,13,18,,,,,,,,4.34,2.93,3.21*02
$GPGSV,3,1,11,05,25,192,29,10,10,327,,13,66,114,25,14,47,068,*77
$GPGSV,3,2,11,15,79,254,27,17,13,100,,18,06,270,12,19,02,124,*75
$GPGSV,3,3,11,23,34,303,18,28,56,092,15,30,18,071,*4C
$GPGLL,5129.35964,N,00245.57403,W,205633.00,A,A*7E
$GPRMC,205634.00,A,5129.35957,N,00245.57395,W,0.513,,270821,,,A*61
$GPVTG,,T,,M,0.513,N,0.950,K,A*28
$GPGGA,205634.00,5129.35957,N,00245.57395,W,1,05,2.96,12.8,M,48.8,M,,*73
$GPGSA,A,3,15,05,23,13,18,,,,,,,,4.74,2.96,3.70*07
$GPGSV,3,1,11,05,25,192,29,10,10,327,,13,66,114,24,14,47,068,*76
$GPGSV,3,2,11,15,79,254,27,17,13,100,,18,06,270,12,19,02,124,*75
$GPGSV,3,3,11,23,34,303,17,28,56,092,15,30,18,071,*43
$GPGLL,5129.35957,N,00245.57395,W,205634.00,A,A*71
$GPRMC,205635.00,A,5129.35950,N,00245.57372,W,0.556,,270821,,,A*6F
$GPVTG,,T,,M,0.556,N,1.030,K,A*27
$GPGGA,205635.00,5129.35950,N,00245.57372,W,1,05,2.96,12.9,M,48.8,M,,*7D
$GPGSA,A,3,15,05,23,13,18,,,,,,,,4.74,2.96,3.70*07
$GPGSV,3,1,11,05,25,192,29,10,10,327,,13,66,114,24,14,47,068,*76
$GPGSV,3,2,11,15,79,254,27,17,13,100,,18,06,270,12,19,02,124,*75
$GPGSV,3,3,11,23,34,303,17,28,56,092,16,30,18,071,*40
$GPGLL,5129.35950,N,00245.57372,W,205635.00,A,A*7E
$GPRMC,205636.00,A,5129.35953,N,00245.57370,W,0.356,,270821,,,A*6B
$GPVTG,,T,,M,0.356,N,0.660,K,A*23
$GPGGA,205636.00,5129.35953,N,00245.57370,W,1,05,2.96,13.0,M,48.8,M,,*77
$GPGSA,A,3,15,05,23,13,18,,,,,,,,4.74,2.96,3.70*07
$GPGSV,3,1,11,05,25,192,28,10,10,327,,13,66,114,23,14,47,068,*70
$GPGSV,3,2,11,15,79,254,27,17,13,100,,18,06,270,12,19,02,124,*75
$GPGSV,3,3,11,23,34,303,17,28,56,092,17,30,18,071,*41
$GPGLL,5129.35953,N,00245.57370,W,205636.00,A,A*7C
$GPRMC,205637.00,A,5129.35952,N,00245.57371,W,0.260,,270821,,,A*6E
$GPVTG,,T,,M,0.260,N,0.482,K,A*29
$GPGGA,205637.00,5129.35952,N,00245.57371,W,1,05,2.96,13.2,M,48.8,M,,*74
$GPGSA,A,3,15,05,23,13,18,,,,,,,,4.74,2.96,3.70*07
$GPGSV,3,1,11,05,25,192,28,10,10,327,,13,66,114,24,14,47,068,*77
$GPGSV,3,2,11,15,79,254,27,17,13,100,,18,06,270,12,19,02,124,*75
$GPGSV,3,3,11,23,34,303,17,28,56,091,16,30,18,071,*43
$GPGLL,5129.35952,N,00245.57371,W,205637.00,A,A*7D
$GPRMC,205638.00,A,5129.35961,N,00245.57391,W,0.027,,270821,,,A*6E
$GPVTG,,T,,M,0.027,N,0.050,K,A*23
$GPGGA,205638.00,5129.35961,N,00245.57391,W,1,05,2.93,13.2,M,48.8,M,,*70
$GPGSA,A,3,15,05,23,13,18,,,,,,,,4.34,2.93,3.21*02
$GPGSV,3,1,11,05,25,192,28,10,10,327,,13,66,114,24,14,47,068,*77
$GPGSV,3,2,11,15,79,254,27,17,13,100,,18,06,270,17,19,02,124,*70
$GPGSV,3,3,11,23,34,303,15,28,56,091,16,30,18,071,*41
$GPGLL,5129.35961,N,00245.57391,W,205638.00,A,A*7C
$GPRMC,205639.00,A,5129.35957,N,00245.57385,W,0.139,,270821,,,A*61
$GPVTG,,T,,M,0.139,N,0.257,K,A*28
$GPGGA,205639.00,5129.35957,N,00245.57385,W,1,05,2.93,13.1,M,48.8,M,,*72
$GPGSA,A,3,15,05,23,13,18,,,,,,,,4.34,2.93,3.21*02
$GPGSV,3,1,11,05,25,192,28,10,10,327,,13,66,114,24,14,47,068,*77
$GPGSV,3,2,11,15,79,254,27,17,13,100,,18,06,270,19,19,02,124,*7E
$GPGSV,3,3,11,23,34,303,12,28,56,091,18,30,17,071,*47
$GPGLL,5129.35957,N,00245.57385,W,205639.00,A,A*7D
$GPRMC,205640.00,A,5129.35944,N,00245.57354,W,0.150,,270821,,,A*6E
$GPVTG,,T,,M,0.150,N,0.278,K,A*2A
$GPGGA,205640.00,5129.35944,N,00245.57354,W,1,05,3.08,13.4,M,48.8,M,,*74
$GPGSA,A,3,15,05,23,13,18,,,,,,,,4.45,3.08,3.21*07
$GPGSV,3,1,11,05,25,192,28,10,10,327,,13,66,114,23,14,47,068,*70
$GPGSV,3,2,11,15,79,254,27,17,13,100,,18,06,270,21,19,02,124,*75
$GPGSV,3,3,11,23,34,303,11,28,56,091,18,30,17,071,*44
$GPGLL,5129.35944,N,00245.57354,W,205640.00,A,A*7D
$GPRMC,205641.00,A,5129.35938,N,00245.57349,W,0.191,,270821,,,A*65
$GPVTG,,T,,M,0.191,N,0.354,K,A*28
$GPGGA,205641.00,5129.35938,N,00245.57349,W,1,05,3.08,13.4,M,48.8,M,,*72
$GPGSA,A,3,15,05,23,13,18,,,,,,,,4.45,3.08,3.21*07
$GPGSV,3,1,11,05,25,192,28,10,10,327,,13,66,114,24,14,47,068,*77
$GPGSV,3,2,11,15,79,254,27,17,13,100,,18,06,270,21,19,02,124,*75
$GPGSV,3,3,11,23,34,303,12,28,56,091,18,30,17,071,*47
$GPGLL,5129.35938,N,00245.57349,W,205641.00,A,A*7B
$GPRMC,205642.00,A,5129.35937,N,00245.57355,W,0.172,,270821,,,A*69
$GPVTG,,T,,M,0.172,N,0.319,K,A*2C
$GPGGA,205642.00,5129.35937,N,00245.57355,W,1,05,3.08,13.4,M,48.8,M,,*73
$GPGSA,A,3,15,05,23,13,18,,,,,,,,4.45,3.08,3.21*07
$GPGSV,3,1,11,05,25,192,28,10,10,327,,13,66,114,24,14,47,068,*77
$GPGSV,3,2,11,15,79,254,27,17,13,100,,18,06,270,20,19,02,124,*74
$GPGSV,3,3,11,23,34,303,12,28,56,091,18,30,17,071,*47
$GPGLL,5129.35937,N,00245.57355,W,205642.00,A,A*7A
$GPRMC,205643.00,A,5129.35916,N,00245.57332,W,0.263,,270821,,,A*69
$GPVTG,,T,,M,0.263,N,0.487,K,A*2F
$GPGGA,205643.00,5129.35916,N,00245.57332,W,1,04,3.08,13.7,M,48.8,M,,*72
$GPGSA,A,3,15,05,13,18,,,,,,,,,4.45,3.08,3.21*06
$GPGSV,3,1,11,05,25,192,28,10,10,327,,13,66,114,23,14,47,068,*70
$GPGSV,3,2,11,15,79,254,27,17,13,100,,18,06,270,20,19,02,124,*74
$GPGSV,3,3,11,23,34,303,,28,56,091,18,30,17,071,*44
$GPGLL,5129.35916,N,00245.57332,W,205643.00,A,A*79
$GPRMC,205644.00,A,5129.35906,N,00245.57326,W,0.311,,270821,,,A*6E
$GPVTG,,T,,M,0.311,N,0.576,K,A*24
$GPGGA,205644.00,5129.35906,N,00245.57326,W,1,05,3.08,13.9,M,48.8,M,,*7E
$GPGSA,A,3,15,05,23,13,18,,,,,,,,4.45,3.08,3.21*07
$GPGSV,3,1,11,05,25,192,28,10,10,327,,13,66,114,23,14,47,068,*70
$GPGSV,3,2,11,15,79,254,27,17,13,100,,18,06,270,18,19,02,124,*7F
$GPGSV,3,3,11,23,34,303,16,28,56,091,17,30,17,071,*4C
$GPGLL,5129.35906,N,00245.57326,W,205644.00,A,A*7A
$GPRMC,205645.00,A,5129.35901,N,00245.57314,W,0.334,,270821,,,A*6E
